id,name,address,lat,long,star_number,street_id,district_id,province_id
71,Canary Hotel,"37 Nguyễn Công Trứ, Thành Phố Huế, Thừa Thiên - Huế",16.47152726,107.5969595,2,27718.0,275.0,1
77,Khách Sạn Imperial Huế (Imperial Hotel Hue),"8 Hùng Vương Bùng binh Hùng Vương, Thành Phố Huế, Thừa Thiên - Huế",16.465359,107.592861,5,27810.0,275.0,1
123,Indochine Palace Hotel,"105A Hùng Vương, Thành Phố Huế, Thừa Thiên - Huế",16.46098493,107.5978344,5,519.0,275.0,1
143,Century Riverside Hue Hotel,"Số 49 Lê Lợi, Thành Phố Huế, Thừa Thiên - Huế",16.47046926,107.5938485,4,27705.0,275.0,1
206,Khách sạn Huế Smile ( Hue Smile Hotel ),"175-177 Bà Triệu, Thành Phố Huế, Thừa Thiên - Huế",16.46230997,107.6001528,3,27647.0,275.0,1
262,Khách sạn Duy Tân (Duy Tan Hotel),"12 Bùng binh Hùng Vương, Thành Phố Huế, Thừa Thiên - Huế",16.46535873,107.5925903,3,27810.0,275.0,1
331,Eldora Hotel,"60 Bến Nghé, Thành Phố Huế, Thừa Thiên - Huế",16.46500613,107.5946765,4,27643.0,275.0,1
343,Hue Serene Palace Hotel,"21 Lane 42 Nguyen Cong Tru , Thành phố Huế, Huế, Việt Nam",16.47024176,107.5971928,3,27718.0,275.0,1
416,Khách Sạn Romance (Romance Hotel),"16 Nguyễn Thái Học, Thành Phố Huế, Thừa Thiên - Huế",16.4680842,107.5957725,4,27738.0,275.0,1
446,Saigon Morin Hotel,"30 Lê Lợi, Thành Phố Huế, Thừa Thiên - Huế",16.46690766,107.5903451,5,27705.0,275.0,1
447,Mondial Hotel Hue,"17 Nguyễn Huệ, Thành Phố Huế, Thừa Thiên - Huế",16.45777101,107.5830281,4,27727.0,275.0,1
462,Thanh Lich Royal Boutique Hotel,"33 Hai Bà Trưng, Thành Phố Huế, Thừa Thiên - Huế",16.46065198,107.5896102,4,27671.0,275.0,1
662,Khách sạn Alba Spa (Alba Spa Hotel),"29 Trần Quang Khải, Thành Phố Huế, Thừa Thiên - Huế",16.46524473,107.5954011,4,561.0,275.0,1
695,Thanh Tân Hotspring Hotel," Phong Sơn, Huyện Phong Điền Thừa Thiênhuế, Thừa Thiên - Huế",16.4903036,107.382167,3,234.0,434.0,1
707,Huong Giang Hotel Resort & Spa,"51 Lê Lợi, Thành Phố Huế, Thừa Thiên - Huế",16.471902800000002,107.5947762,4,27705.0,275.0,1
765,Khách sạn Stay (Stay Hotel),"7 Nguyễn Công Trứ, Thành Phố Huế, Thừa Thiên - Huế",16.47198575,107.5957975,2,27718.0,275.0,1
769,Thanh Lich HUE  Hotel,"59 Võ Thị Sáu, Thành Phố Huế, Thừa Thiên - Huế",16.47035191,107.59592990000002,3,27787.0,275.0,1
953,Khách sạn Thanh Uyên (Thanh Uyen Hotel),"14 Bà Triệu, Thành Phố Huế, Thừa Thiên - Huế",16.46949415,107.598703,2,27647.0,275.0,1
959,Asia Hotel,"số 17 Phạm Ngũ Lão, Thành Phố Huế, Thừa Thiên - Huế",16.46899796,107.594902,4,27748.0,275.0,1
1087,Khách Sạn Cherish Huế (Cherish Hue Hotel),"57 Bến Nghé, Thành Phố Huế, Thừa Thiên - Huế",16.46563248,107.5948138,4,27643.0,275.0,1
1106,Hue Riverside Boutique Resort & Spa,"588 Bùi Thị Xuân, Thành Phố Huế, Thừa Thiên - Huế",16.44964825,107.5397098,4,27814.0,275.0,1
1262,Khách sạn Mường Thanh Huế (Muong Thanh Holiday Hue Hotel),"38 Lê Lợi, Thành phố Huế, Việt Nam, Sông Hương, Huế, Việt Nam, 530000",16.469423000000003,107.593241,4,27705.0,275.0,1
1400,DMZ Hotel,"21 Đội Cung, Thành Phố Huế, Thừa Thiên - Huế",16.46900141,107.5932741,2,27666.0,275.0,1
1551,Phong Nha Hotel,"2/34 Nguyễn Tri Phương, Thành Phố Huế, Thừa Thiên - Huế",16.46467241,107.5926867,2,27742.0,275.0,1
1784,Than Thien – Friendly Hotel,"10 Đường Nguyễn Công Trứ, TP. Huế, Sông Hương, Huế, Việt Nam",16.47212645,107.5951462,2,27705.0,275.0,1
1878,Azerai La Residence Huế (Azerai La Residence Hue),"5 Lê Lợi, Thành Phố Huế, Thừa Thiên - Huế",16.4590726,107.5802118,5,27705.0,275.0,1
1926,Khách sạn Như Phú (Nhu Phu Hotel),"16 Chu Văn An, Thành Phố Huế, Thừa Thiên - Huế",16.46993018,107.5950335,2,27649.0,275.0,1
1954,Khách sạn Bình Minh (Binh Minh Sunrise Hotel),"36 Nguyễn Tri Phương, Thành Phố Huế, Thừa Thiên - Huế",16.4648087,107.5925338,2,27742.0,275.0,1
1988,Hong Thien 1 Hotel,"35/6 Chu Văn An, Thành Phố Huế, Thừa Thiên - Huế",16.4695315,107.5955847,3,27649.0,275.0,1
2041,Lang Co Resort - Stork Village,"449 lạc long quân Thị trấn Lăng Cô, Huyện Phú Lộc, Thừa Thiên - Huế",16.24738601,108.075278,3,38.0,441.0,1
2114,Khách sạn Trần Lý (Tran Ly Hotel),"78 Đường Lê Lợi, Huế, Sông Hương, Huế, Việt Nam",16.47070932,107.59392859999998,1,27705.0,275.0,1
2144,Khách sạn Whynot (Whynot Hotel),"26 Phạm Ngũ Lão, Thành Phố Huế, Thừa Thiên - Huế",16.46929259,107.5944976,1,27748.0,275.0,1
2350,Khách sạn Victory Huế (Victory Hotel Hue),"8 Nguyễn Hữu Thọ, Thành Phố Huế, Thừa Thiên - Huế",16.46214388,107.6027021,2,27726.0,275.0,1
2376,Khách sạn Hạnh Đạt Huế (Hanh Dat Hotel Hue),"15 Phạm Văn Đồng, Thành Phố Huế, Thừa Thiên - Huế",16.4725484,107.6004276,2,27760.0,275.0,1
2431,Khách sạn Golden Star Huế ( Golden Star Hotel Hue ),"34 Võ Thị Sáu, Thành Phố Huế, Thừa Thiên - Huế",16.47090688,107.5962943,3,27787.0,275.0,1
2451,Khách sạn Ngũ Bình (Ngu Binh Hotel),"130 Trần Phú, Thành Phố Huế, Thừa Thiên - Huế",16.45131782,107.5896249,2,27798.0,275.0,1
2461,Khách sạn Phượng Hoàng (Phoenix Hotel),"Số 66/3 Lê Lợi, Thành Phố Huế, Thừa Thiên - Huế",16.47007658,107.5943926,2,27705.0,275.0,1
2636,Khách sạn Cyclist (Hotel Cyclist),"27/8 Hanoi Street, Thành phố Huế, Huế, Việt Nam, 53000",16.463686600000003,107.5936174,1,27668.0,275.0,1
2649,Thái Bình 2 Hotel,"2 Lương Thế Vinh, Thành Phố Huế, Thừa Thiên - Huế",16.46565056,107.590744,2,27717.0,275.0,1
2665,Khách sạn New Valentine (New Valentine Hotel),"7/64 Nguyễn Công Trứ, Thành Phố Huế, Thừa Thiên - Huế",16.47187865,107.5966963,2,27718.0,275.0,1
2677,Cozy Hue Hotel,"28/42 Nguyễn Công Trứ, Thành Phố Huế, Thừa Thiên - Huế",16.47187865,107.5966963,2,27718.0,275.0,1
2691,Khách sạn Alba (Alba Hotel),"12 Nguyễn Văn Cừ, Thành Phố Huế, Thừa Thiên - Huế",16.46179021,107.5903746,3,27743.0,275.0,1
2772,Hoang Tuan Hotel,"Lô B16-17, Đường Phạm Văn Đồng, Tp. Huế, Thành phố Huế, Huế, Việt Nam",16.47357982,107.601707,2,27760.0,275.0,1
2918,Khách sạn Nhật Lệ (Nhat Le Hotel),"6A/34 Nguyen Tri Phuong Street, Thành phố Huế, Huế, Việt Nam",16.46493104,107.5913696,1,27742.0,275.0,1
2984,Khách Sạn Villa Huế (Villa Hue Hotel),"4 Trần Quang Khải, Thành Phố Huế, Thừa Thiên - Huế",16.46744074,107.595381,4,561.0,275.0,1
3062,Khách sạn Hương Cau (Areca Hotel),"76/1 Hùng Vương, Thành Phố Huế, Thừa Thiên - Huế",16.46072706,107.5974737,2,519.0,275.0,1
3160,Khách Sạn Minh Hiếu,"3 Chu Văn An, Thành phố Huế, Huế, Việt Nam",16.46897507,107.5958252,1,27669.0,275.0,1
3191,Khách sạn Kinh Đô (Kinh Do Hotel Hue),"1 Nguyễn Thái Học, Thành phố Huế, Huế, Việt Nam",16.46823502,107.5956116,2,27738.0,275.0,1
3266,Canary Boutique Hotel,"43/8 Nguyễn Công Trứ, Thành Phố Huế, Thừa Thiên - Huế",16.47171246,107.5969095,2,27718.0,275.0,1
3295,Liberty Hotel Hue,"10 Kiệt 25 Hai Bà Trưng, Thành phố Huế, Huế, Việt Nam, 530000",16.46046388,107.5897014,1,27671.0,275.0,1
3315,Hue Royal Hotel,"36 Võ Thị Sáu, Thành Phố Huế, Thừa Thiên - Huế",16.47100277,107.5962173,3,27787.0,275.0,1
3317,Khách sạn Phượng Hoàng (Phuong Hoang Hotel),"66/3 Lê Lợi, Thành Phố Huế, Thừa Thiên - Huế",16.469644,107.5932951,2,27705.0,275.0,1
3361,Huế Holiday Diamond Hotel,"Số 6 Ngõ 14, Nguyễn Công Trứ, Thành Phố Huế, Thừa Thiên - Huế",16.47122856,107.5955229,2,27718.0,275.0,1
3368,Sunny B Hotel,"4/34 Nguyễn Tri Phương, Thành Phố Huế, Thừa Thiên - Huế",16.46473157,107.5926733,2,27742.0,275.0,1
3477,Khu nghỉ dưỡng Lăng Cô Beach Huế (Lang Co Beach Resort),"463 Lạc Long Quân, Lăng Cô, Huyện Phú Lộc, Thừa Thiên - Huế",16.24778265,108.0757928,3,27843.0,441.0,1
3544,Minh Tâm Guest House (Minh Tam Guest House),"7/4 Chu Van An, Thành phố Huế, Huế, Việt Nam, 530000",16.47051625,107.59503,1,27649.0,275.0,1
3565,Trang Chau Guesthouse,16D Hai Ba Trung,16.4616449,107.589114,0,27671.0,275.0,1
3604,2you Hotel,"59 Bến Nghé, Thành phố Huế, Huế, Việt Nam",16.46540451,107.5946274,1,27643.0,275.0,1
3617,Khách sạn Huế Heritage (Hue Heritage Hotel),"09 Lý Thường Kiệt, Thành Phố Huế, Thừa Thiên - Huế",16.46261458,107.5912929,3,27708.0,275.0,1
4217,Khách sạn Đồng Lợi (Dong Loi Hotel),"19 Phạm Ngũ Lão, Thành Phố Huế, Thừa Thiên - Huế",16.46896078,107.59490259999998,1,27748.0,275.0,1
4273,Khách sạn Sunny C (Sunny C Hotel),"7/25 Hai Bà Trưng, Thành Phố Huế, Thừa Thiên - Huế",16.46079265,107.59013590000002,2,27671.0,275.0,1
4282,Sunny A Hotel,"17/34 Nguyễn Tri Phương, Thành Phố Huế, Thừa Thiên - Huế",16.46442544,107.5929402,2,27742.0,275.0,1
4352,Khách sạn Huế Thương (Hue Thuong Hotel),"11 Chu Văn An, Thành Phố Huế, Thừa Thiên - Huế",16.47018226,107.5951743,1,27649.0,275.0,1
4455,Khách sạn Star Bình Dương (Star Binh Duong Hotel),"41/1 Ngô Quyền, Thành Phố Huế, Thừa Thiên - Huế",16.46326575,107.5900132,2,27725.0,275.0,1
4501,NHÀ DÂN KHE SANH (KHE SANH HOMESTAY),"53 Nguyễn Công Trứ, TP Huế, Việt Nam, Thành phố Huế, Huế, Việt Nam, 53000",16.47114285,107.5977193,1,27718.0,275.0,1
4516,Khách sạn Ngọc Bình (Ngoc Binh Hotel),"6A/34 Nguyễn Tri Phương, Thành phố Huế, Huế, Việt Nam",16.46483994,107.5925369,1,27742.0,275.0,1
4539,Binh Duong 2 Hotel,"08 Ngô Gia Tự, Thành Phố Huế, Thừa Thiên - Huế",16.46114079,107.5901262,2,27720.0,275.0,1
4567,Binh An Guesthouse,"18/16 Hai Bà Trưng, Thành phố Huế, Huế, Việt Nam",16.46124621,107.58882959999998,1,27725.0,275.0,1
4578,Nhat Thanh Guesthouse,"17 Chu Văn An, Thành phố Huế, Huế, Việt Nam",16.470153699999997,107.595216,1,27649.0,275.0,1
4718,Home Hotel,"8 Nguyễn Công Trứ, Thành Phố Huế, Thừa Thiên - Huế",16.47210149,107.59511609999998,2,27718.0,275.0,1
4750,Nova Hotel,"19 Đội Cung, Thành Phố Huế, Thừa Thiên - Huế",16.46823748,107.5941834,1,27666.0,275.0,1
4825,Dang Tuan Hotel,"92 Lê Lợi, Sông Hương, Huế, Việt Nam",16.47076589,107.5942128,1,27705.0,275.0,1
4966,Hong Thien Ruby Hotel,"Số 35, Ngõ 12 Chu Văn An, Thành Phố Huế, Thừa Thiên - Huế",16.47018461,107.5953555,2,27649.0,275.0,1
5077,Oasis Bar and Hostel,"42/4 Le Loi, Thành phố Huế, Huế, Việt Nam",16.46963419,107.5936872,1,27705.0,275.0,1
5268,Khách Sạn Cố Đô (Citadel Hotel),"32 Trường Chinh, Thành Phố Huế, Thừa Thiên - Huế",16.4619899,107.6017456,1,27806.0,275.0,1
5873,Trang Tien Hotel,"62 Le Loi, Thành phố Huế, Huế, Việt Nam",16.47023857,107.5941351,1,27705.0,275.0,1
5909,Huong Duong Hotel,"37 Hai Bà Trưng, Thành Phố Huế, Thừa Thiên - Huế",16.45960244,107.58897179999998,2,27671.0,275.0,1
6265,Khách Sạn Huế Nino (Hue Nino Hotel),"14 Nguyễn Công Trứ, Thành Phố Huế, Thừa Thiên - Huế",16.47187865,107.5966963,3,27718.0,275.0,1
6391,Remy Hotel,"09 Hai Bà Trưng, Thành phố Huế, Huế, Việt Nam",16.46231479,107.5893742,1,27671.0,275.0,1
6410,Khách sạn Canary Huế (Canary Hue Hotel),"số 8 ngách 43 Nguyễn Công Trứ, Thành Phố Huế, Thừa Thiên - Huế",16.47158385,107.5969219,2,27718.0,275.0,1
6949,Laurel Hotel Hue,7 Doi Cung,16.46904257,107.59330359999998,1,27666.0,275.0,1
6986,Khách sạn Lâm Bảo Long (Lam Bao Long Hotel),"80 Lê Lợi, Thành Phố Huế, Thừa Thiên - Huế",16.47056967,107.5944866,2,27705.0,275.0,1
7046,Thien Thanh guest house,"38 Nguyễn Huệ, Thành phố Huế, Huế, Việt Nam",16.45739798,107.5833795,1,27780.0,275.0,1
7131,Khách sạn Boutique Casablanca (Casablanca Boutique hotel),"10 Bà Triệu, Thành Phố Huế, Thừa Thiên - Huế",16.46953128,107.59888329999998,2,27647.0,275.0,1
7589,Thanh An Guesthouse,"7/41 Ngo Quyen, Thành phố Huế, Huế, Việt Nam",16.46318048,107.5904363,1,27725.0,275.0,1
7919,Khách sạn Thái Bình 2,"2 Lương Thế Vinh, Thành Phố Huế, Thừa Thiên - Huế",16.46570901,107.5909299,3,27717.0,275.0,1
8721,Tai Hai Guest House,"28/16 Hai Ba Trung, Thành phố Huế, Huế, Việt Nam",16.46137479,107.5892607,1,27671.0,275.0,1
8722,Khách sạn Casablanca (Casablanca Hotel),"44 Nguyễn Công Trứ, Thành phố Huế, Huế, Việt Nam",16.470841699999998,107.5979669,1,27718.0,275.0,1
8725,Khách Sạn & Spa Serene Shining Huế (Hue Serene Shining Hotel & Spa),"57/5 Nguyễn Công Trứ, Thành Phố Huế, Thừa Thiên - Huế",16.47156228,107.5981366,3,27718.0,275.0,1
8728,Duc Tai Guesthouse,"60/48 Ngô Quyền, Thành phố Huế, Huế, Việt Nam",16.46151901,107.588402,1,27725.0,275.0,1
8734,Phu Hiep Guest House,"16/16 Hai Ba Trung, Thành phố Huế, Huế, Việt Nam",16.46040104,107.5888875,1,27725.0,275.0,1
8735,My Ngoc Guest house,"18 Ngô Gia Tự, Thành phố Huế, Huế, Việt Nam",16.460411999999998,107.590052,1,27720.0,275.0,1
8737,Thanh Hang Guesthouse,"32/16 Hai Ba Trung, Thành phố Huế, Huế, Việt Nam",16.46026157,107.5888278,1,27671.0,275.0,1
8739,Thanh Dinh Guest House,"45/48 Ngo Quyen\n, Thành phố Huế, Huế, Việt Nam",16.45966708,107.5864805,1,27725.0,275.0,1
8918,Hue Spring HomeStay,"64 Lê Lợi, Hue, Thành phố Huế, Huế, Việt Nam 3738",16.47017712,107.5940548,0,27705.0,275.0,1
9703,Pilgrimage Village Boutique Resort & Spa,"Số 130 Minh Mạng, Thành Phố Huế, Thừa Thiên - Huế",16.42589229,107.5787792,5,27709.0,275.0,1
9810,Villa Louise Beach Resort Hue,"0 Phú Thuận, Huyện Phú Vang, Thừa Thiên - Huế",16.54465669,107.6781984,4,33609.0,451.0,1
9869,Khe Sanh HomeStay,53 Nguyen Cong Tru,16.47112347,107.5977533,1,27718.0,275.0,1
9893,Kim's Homestay,35/35 nguyen thai hoc st,16.46812948,107.5975951,0,27738.0,275.0,1
21653,Thanh An 3 Guesthouse,"46/48 Ngo Quyen Street, Thành phố Huế, Huế, Việt Nam",16.46140099,107.58843229999998,1,27725.0,275.0,1
22166,Moon & Sun Hostel,"10/10 Bến Nghé, Thành Phố Huế, Thừa Thiên - Huế",16.46660099,107.5943621,1,27643.0,275.0,1
22199,Khách sạn Hue Smile (Hue Smile Hotel),"175 Bà Triệu, Thành Phố Huế, Thừa Thiên - Huế",16.46224679,107.6001245,3,27647.0,275.0,1
22343,Charming Riverside Hotel,"kiệt 27 , nha so 05 Nguyễn Sinh Cung, Thành phố Huế, Sông Hương, Huế, Việt Nam, 53000",16.474631,107.5952107,0,27734.0,275.0,1
22741,The Scarlett Boutique Hotel,"17/1 Bến Nghé, Thành Phố Huế, Thừa Thiên - Huế",16.467564000000003,107.594606,3,27643.0,275.0,1
22774,Amy Hostel Hue,"22 Tran Cao Van, Thành phố Huế, Huế, Việt Nam, 47000",16.46522544,107.5915039,1,27770.0,275.0,1
23228,Jade Hotel,"43 Hùng Vương, Phú Hội, Thành Phố Huế, Thừa Thiên - Huế",16.46461063,107.59371670000002,2,40.0,275.0,1
23341,Rosaleen Boutique Hotel,"36 Chu Văn An, Thành Phố Huế, Thừa Thiên - Huế",16.46951349,107.5956329,3,27649.0,275.0,1
23411,Khách Sạn EMM Huế (EMM Hotel Hue),"15 Lý Thường Kiệt, Thành Phố Huế, Thừa Thiên - Huế",16.460538800000002,107.5916407,4,27708.0,275.0,1
23418,Hue Amazing Family Homestay,"2/10 Vo Thi Sau street, Thành phố Huế, Huế, Việt Nam 054",16.46885715,107.59530420000002,0,27787.0,275.0,1
23699,Phuoc An DMZ Hotel,"1A Pham Ngu Lao, Thành phố Huế, Huế, Việt Nam",16.470010000000002,107.59403600000002,1,27748.0,275.0,1
29514,Beaulieu Boutique Hotel Hue,"15 Phạm Ngũ Lão, Thành Phố Huế, Thừa Thiên - Huế",16.4691413,107.5947282,3,27748.0,275.0,1
29672,Trang Hotel,"15, Hòn Chảo - Phú Lộc, Huyện Phú Lộc, Thừa Thiên - Huế",0.0,0.0,1,32452.0,441.0,1
29676,Alibaba hot,"12, Quốc lộ 1A, Huyện A Lưới, Thừa Thiên - Huế",0.0,0.0,1,27840.0,1.0,1
41168,Khách sạn Laurel Huế (Laurel Hotel Hue),"7 Đội Cung, Thành Phố Huế, Thừa Thiên - Huế",16.4690591,107.5933923,2,27666.0,275.0,1
41176,Amona Hotel,"11 Nguyễn Công Trứ, Thành Phố Huế, Thừa Thiên - Huế",16.47187865,107.5966963,2,27718.0,275.0,1
41178,Avon Hotel,"135 Nguyễn Sinh Cung, Thành Phố Huế, Thừa Thiên - Huế",16.48084882,107.5959731,2,27734.0,275.0,1
41180,Poetic Hue Hotel,"Kiệt 26 số nhà 24 Võ Thị Sáu, Thành Phố Huế, Thừa Thiên - Huế",16.47024142,107.59660890000002,1,27787.0,275.0,1
41183,Khách sạn The Sunriver Boutique Huế (The Sunriver Boutique Hotel Hue),"15 Đội Cung, Thành Phố Huế, Thừa Thiên - Huế",16.46869257,107.5937691,3,27666.0,275.0,1
41184,Nice Hue Hotel,"Số 27 Hai Bà Trưng, Thành Phố Huế, Thừa Thiên - Huế",16.45952,107.589154,2,27671.0,275.0,1
41186,Khách Sạn The Times (The Times Hotel),"29 Kiệt 42 Nguyễn Công Trứ, Thành Phố Huế, Thừa Thiên - Huế",16.47187865,107.5966963,2,27718.0,275.0,1
41187,La Paix Huế (La Paix Hue),"Số 8 kiệt 139 Nguyễn Sinh Cung, Thành Phố Huế, Thừa Thiên - Huế",16.48130664,107.5954447,3,27734.0,275.0,1
41189,Khách Sạn Sapphire Huế (Sapphire Hotel Hue),"65 Võ Thị Sáu, Thành Phố Huế, Thừa Thiên - Huế",16.47066711,107.5960295,2,27787.0,275.0,1
41193,Khách sạn Cherry Huế (Cherry Hotel Hue),"5/28 Võ Thị Sáu, Thành Phố Huế, Thừa Thiên - Huế",16.47043947,107.5961422,3,27787.0,275.0,1
41198,The G.Hotel Hue,"33/1A Nguyễn Công Trứ, Thành Phố Huế, Thừa Thiên - Huế",16.47169664,107.5968351,3,27718.0,275.0,1
41202,Kha Hotel,"5/29 Võ Thị Sáu, Thành Phố Huế, Thừa Thiên - Huế",16.46947749,107.595477,2,27787.0,275.0,1
41204,SH Hotel,"42/48 Ngô Quyền, Thành Phố Huế, Thừa Thiên - Huế",16.46065287,107.5880849,1,27725.0,275.0,1
41217,Spring Garden Villa,"46 Minh Mạng, Thành Phố Huế, Thừa Thiên - Huế",16.43404171,107.5806841,2,27709.0,275.0,1
41220,Khách Sạn Huế Royal (Hue Royal Hotel),"36 Võ Thị Sáu, Thành Phố Huế, Thừa Thiên - Huế",16.47118539,107.59611,3,27787.0,275.0,1
41231,Khách Sạn Beaulieu Boutique (Beaulieu Boutique Hotel),"15 Phạm Ngũ Lão, Thành Phố Huế, Thừa Thiên - Huế",16.46913311,107.5947711,3,27748.0,275.0,1
41232,The Sunriver Boutique Hotel,"15 Đội Cung, Thành Phố Huế, Thừa Thiên - Huế",16.4684675,107.5939287,3,27666.0,275.0,1
41237,Khách sạn Carnosa Huế (Carnosa Hotel Hue),"11D Nguyễn Công Trứ, Thành Phố Huế, Thừa Thiên - Huế",16.47187865,107.5966963,3,27718.0,275.0,1
41240,Rabbit Motel,"5/1 Lê Hồng Phong, Thành Phố Huế, Thừa Thiên - Huế",16.4593071,107.5962355,1,27686.0,275.0,1
41243,Royal Crest Hotel,"25/40 Nguyễn Sinh Cung, Thành Phố Huế, Thừa Thiên - Huế",16.47556713,107.5961125,2,27734.0,275.0,1
41312,Spring Garden Villa - Azalea Room,"46 Minh Mạng, Thành Phố Huế, Thừa Thiên - Huế",16.43403592,107.580674,2,27709.0,275.0,1
41318,Pilgrimage Wellness Retreat,"Số 130 Minh Mạng, Thành Phố Huế, Thừa Thiên - Huế",16.42550553,107.5786537,5,27709.0,275.0,1
45547,Ideal Hotel Hue,"1 Võ Thị Sáu, Phú Hội, Thành Phố Huế, Thừa Thiên - Huế",16.4679799,107.5943896,2,40.0,275.0,1
45571,Century Riverside Hotel Hue,"49 Lê Lợi, Thành Phố Huế, Thừa Thiên - Huế",16.4708257,107.5945653,1,27705.0,275.0,1
45589,Vinpearl Hotel Huế,"50A Hùng Vương, Phú Nhuận, Thành Phố Huế, Thừa Thiên - Huế",16.463313,107.5941497,5,54.0,275.0,1
45757,Sunshine 1 Hotel,"5B/28, Võ Thị Sáu, Thành Phố Huế, Thừa Thiên - Huế",16.47051021,107.5961743,1,27787.0,275.0,1
45759,Sunshine 3 Hotel,"10/2 Võ Thị Sáu, Thành Phố Huế, Thừa Thiên - Huế",16.46966268,107.596405,1,27787.0,275.0,1
8,Khách sạn Đông Xuân Hồng Phú Quốc (Dong Xuan Hong Hotel Phu Quoc),"81 Trần Hưng Đạo, Phú Quốc, Kiên Giang",10.206602,103.963108,2,478.0,446.0,2
10,Khách sạn Blue Ocean (Blue Ocean Hotel),"85 Trần Hưng Đạo, Phú Quốc, Kiên Giang",10.206245,103.963008,2,478.0,446.0,2
39,Phu Quoc Chez Carole Beach Resort,"Tổ 1, Ấp 4 Cửa Cạn, Phú Quốc, Kiên Giang",10.29364935,103.9045162,4,35.0,446.0,2
102,Cửu Long Phú Quốc Resort (Cuu Long Phu Quoc Resort),"Tổ 2, Ấp Cửa Lấp Dương Tơ, Phú Quốc, Kiên Giang",10.180615,103.9682974,3,42.0,446.0,2
130,Hương Giang Bungalow (Huong Giang Bungalow)," Trần Hưng Đạo, Phú Quốc, Kiên Giang",10.19584884,103.9655658,2,478.0,446.0,2
173,Kim Hoa Resort (Kim Hoa Phu Quoc Resort),"88/2 Trần Hưng Đạo, Phú Quốc, Kiên Giang",10.20392886,103.9616874,3,478.0,446.0,2
201,Mon Bungalow,"113 Tran Hung Dao , Dương Đông, Đảo Phú Quốc, Việt Nam",10.20155872,103.9648264,3,478.0,446.0,2
280,Khách Sạn & Sky Bar Venus Phú Quốc (Venus Hotel & Sky Bar Phu Quoc),"60A Trần Hưng Đạo, Phú Quốc, Kiên Giang",10.21316528,103.9591914,2,478.0,446.0,2
286,Resort La Mer Phú Quốc (La Mer Resort Phu Quoc),"118 Alley Trần Hưng Đạo, Phú Quốc, Kiên Giang",10.19529294,103.9654684,3,478.0,446.0,2
298,Phu Quoc Island Resort and Spa,"118 Trần Hưng Đạo, Phú Quốc, Kiên Giang",10.19468052,103.9674532,2,478.0,446.0,2
332,Ha Tien Happy Hotel,"13-14 Hoàng Văn Thụ, Bình San, Thị Xã Hà Tiên, Kiên Giang",10.38108438,104.4878983,2,258.0,230.0,2
372,Khách sạn Gold Beach (Gold Beach Hotel),"126 Trần Hưng Đạo, Phú Quốc, Kiên Giang",10.19053882,103.9669788,3,478.0,446.0,2
393,Homestead Phu Quoc Resort,"143, Trần Hưng Đạo, Phú Quốc, Kiên Giang",10.19442391,103.9674418,3,478.0,446.0,2
415,Khách sạn Gia Huy (Gia Huy Hotel Phu Quoc),"15A Trần Hưng Đạo, Phú Quốc, Kiên Giang",10.21428673,103.9592376,3,478.0,446.0,2
436,Vinpearl Resort & Spa Phú Quốc,"Bãi Dài, Gành Dầu, Phú Quốc, Kiên Giang",10.306744,103.861471,5,472.0,446.0,2
477,Orange Resort,"88/5 Trần Hưng Đạo, Phú Quốc, Kiên Giang",10.202543,103.962026,3,478.0,446.0,2
482,Resort Hiệp Thạnh (Hiep Thanh Resort),"100C/8 Trần Hưng Đạo, Phú Quốc, Kiên Giang",10.19897552,103.9639825,2,478.0,446.0,2
506,Khu Nghỉ Dưỡng Long Beach Phú Quốc (Long Beach Resort - Phu Quoc Island)," Cửa Lấp, Phú Quốc, Kiên Giang",10.18858242,103.9680252,4,31060.0,446.0,2
538,Khách sạn & Resort Tràng An Phú Quốc (Dreamland Trang An Resort),"60 Trần Hưng Đạo, Phú Quốc, Kiên Giang",10.21064565,103.9599967,3,478.0,446.0,2
552,Terrace Resort,"118/9 Trần Hưng Đạo, Phú Quốc, Kiên Giang",10.19445347,103.966611,3,478.0,446.0,2
554,Hòn Trẹm Resort & Spa,"Ba Trại, Bình An, Huyện Kiên Lương, Kiên Giang",10.14887905,104.6127432,0,199.0,293.0,2
619,Phu My Hotel,"33 Hùng Vương, Phú Quốc, Kiên Giang",10.22326931,103.9724496,2,31069.0,446.0,2
642,Eden Phú Quốc Resort,"Ấp Cửa Lấp Dương Tơ, Phú Quốc, Kiên Giang",10.17872477,103.9689875,4,42.0,446.0,2
680,La Vita Resort Phú Quốc (La Vita Resort Phu Quoc),"47/9 Trần Hưng Đạo, Phú Quốc, Kiên Giang",10.21322866,103.9597163,2,478.0,446.0,2
692,Khách Sạn Cội Nguồn Phú Quốc (Coi Nguon Phu Quoc Hotel),"149 Trần Hưng Đạo, Phú Quốc, Kiên Giang",10.19279035,103.9670563,2,478.0,446.0,2
747,Resort Hòa Bình Phú Quốc (Hoa Binh Phu Quoc Resort),"71 Trần Hưng Đạo, Phú Quốc, Kiên Giang",10.20999429,103.9614719,4,478.0,446.0,2
842,Khách sạn Boulevard Phú Quốc (Boulevard Phu Quoc Hotel),"89 Trần Hưng Đạo, Phú Quốc, Kiên Giang",10.205794,103.963457,3,478.0,446.0,2
848,River Hotel Ha Tien,"Lô B3 Trung Tâm Thương Mại Trần Hầu, Thị Xã Hà Tiên, Kiên Giang",10.37977683,104.4865446,3,33722.0,230.0,2
869,Phu Quoc Village,"52B Đường 30 tháng 4, Phú Quốc, Kiên Giang",10.21310884,103.9626334,3,31068.0,446.0,2
910,Arcadia Phú Quốc Resort,"118 Đường Trần Hưng Đạo Trần Hưng Đạo, Phú Quốc, Kiên Giang",10.19459008,103.9639878,3,478.0,446.0,2
963,An An Hotel,"13-14 Huỳnh Thúc Kháng, Thành Phố Rạch Giá, Kiên Giang",10.01935037,105.0820607,2,30939.0,501.0,2
1002,Castaways Resort,"143A Trần Hưng Đạo, Dương Đông, Đảo Phú Quốc, Việt Nam",10.20704009,103.9628586,2,478.0,446.0,2
1035,Hòa Bình Rạch Giá Resort (Hoa Binh - Rach Gia Resort),"62-64-66 Cô Bắc, Thành Phố Rạch Giá, Kiên Giang",10.00469422,105.0828552,4,30964.0,501.0,2
1073,Viet Thanh Resort,"Phường 7, Trần Hưng Đạo, Phú Quốc, Kiên Giang",10.19133841,103.96510390000002,2,478.0,446.0,2
1091,L'Azure Resort and Spa Phu Quoc,"64 Trần Hưng Đạo, Phú Quốc, Kiên Giang",10.20738326,103.9612842,4,478.0,446.0,2
1092,Resort Tăng Thạnh Phát (Tang Thanh Phat Resort),"Gành Gió, Cửa Dương, Phú Quốc, Kiên Giang",10.24617558,103.9596004,2,102.0,446.0,2
1304,Khách sạn Hương Biển Phú Quốc (Huong Bien Hotel Phu Quoc),"1 Võ Thị Sáu, Phú Quốc, Kiên Giang",10.21425444,103.9586046,3,31080.0,446.0,2
1323,Lan Anh Garden Resort,"Khu phố 7 Trần Hưng Đạo, Phú Quốc, Kiên Giang",10.188556,103.968059,3,478.0,446.0,2
1357,Resort Thiên Hải Sơn (Thien Hai Son Resort),"68 Trần Hưng Đạo, Phú Quốc, Kiên Giang",10.20622177,103.9624858,3,478.0,446.0,2
1431,Sài Gòn Phú Quốc Resort (Saigon Phu Quoc Resort and Spa),"62 Trần Hưng Đạo, Phú Quốc, Kiên Giang",10.20826288,103.960973,5,478.0,446.0,2
1435,Thanh Kieu Beach Resort,"100C/14 Trần Hưng Đạo, Phú Quốc, Kiên Giang",10.19771722,103.9643898,3,478.0,446.0,2
1488,Mango Bay Phu Quoc Resort,"Bãi Biển Ông Lang, Cửa Dương, Phú Quốc, Kiên Giang",10.25877306,103.9374903,3,102.0,446.0,2
1489,Tropicana Resort Phú Quốc,"100C/4 Trần Hưng Đạo, Phú Quốc, Kiên Giang",10.19967656,103.9638685,3,478.0,446.0,2
1516,Khách sạn Phúc Lộc (Phuc Loc Hotel),"193 Nguyễn Trung Trực, Thành Phố Rạch Giá, Kiên Giang",10.22333491,103.966611,1,30988.0,501.0,2
1584,Mekong Space Bungalow,"Ấp Cửa Lấp Suối Mây, Dương Tơ, Phú Quốc, Kiên Giang",10.17867725,103.971962,2,42.0,446.0,2
1600,Resort Vũng Bàu (Vung Bau Resort),"Ngã 3 Vũng Bàu Cửa Cạn, Phú Quốc, Kiên Giang",10.30838845,103.871498,2,35.0,446.0,2
1721,Lien Hiep Thanh Resort,"118/12 Trần Hưng Đạo, Phú Quốc, Kiên Giang",10.19287598,103.9642292,3,478.0,446.0,2
1777,Khu Nghỉ Dưỡng Mai Spa (Mai Spa Resort),"88 Trần Hưng Đạo, Phú Quốc, Kiên Giang",10.201908,103.962418,3,478.0,446.0,2
1782,Phú Quốc Kim Bungalow On The Beach (Phu Quoc Kim Bungalow On The Beach),"118/2/1/1 Trần Hưng Đạo, Phú Quốc, Kiên Giang",10.19490868,103.9644438,3,478.0,446.0,2
1900,Khu nghỉ dưỡng Sirena (Sirena Resort),"100C/3 Trần Hưng Đạo, Phú Quốc, Kiên Giang",10.200371,103.964722,2,478.0,446.0,2
1984,Cassia Cottage Resort,"khu phố 7 Trần Hưng Đạo, Phú Quốc, Kiên Giang",10.19879865,103.9633709,4,478.0,446.0,2
2049,Sao Biển Resort (Sea Star Resort),"98/2 Trần Hưng Đạo, Phú Quốc, Kiên Giang",10.20128008,103.9632154,3,478.0,446.0,2
2085,Phu Quoc Paris Beach Resort,"Trần Hưng Đạo Ấp Cửa Lấp, Phú Quốc, Kiên Giang",10.18962955,103.9650803,3,31054.0,446.0,2
2092,Khu nghỉ dưỡng Bamboo Cottages (Bamboo Cottages),"Vũng Bầu Cửa Cạn, Phú Quốc, Kiên Giang",10.30828314,103.8646898,3,35.0,446.0,2
2096,Khách sạn Hiệp Thoại Phú Quốc (Hiep Thoai Hotel Phu Quoc),"65 Trần Hưng Đạo, Phú Quốc, Kiên Giang",10.21018601,103.9607638,1,478.0,446.0,2
2126,Coco Palm Beach Resort & Spa,"đường Đường Lê Thúc Nha Cửa Dương, Phú Quốc, Kiên Giang",10.25768215,103.9366292,4,102.0,446.0,2
2353,Khách sạn Sea Light,"Lô 11 3 tháng 2, Thành Phố Rạch Giá, Kiên Giang",9.997841058,105.0838974,2,30934.0,501.0,2
2510,Huong Toan 1 Hotel,"03 Nguyễn Thái Bình, Dương Đông, Đảo Phú Quốc, Việt Nam",10.222546,103.964576,1,31066.0,446.0,2
2533,Khu Nghỉ Salinda Phú Quốc (Salinda Resort Phu Quoc Island),"Ấp Cửa Lấp, Dương Tơ, Phú Quốc, Kiên Giang",10.18401,103.966616,5,42.0,446.0,2
2571,Bungalow Sóng Xanh (Song Xanh Bungalow),"Đường Trần Hưng Đạo, Ấp Cửa Lấp, Phú Quốc, Kiên Giang",10.18839036,103.9671776,2,31054.0,446.0,2
2712,Wild Beach Phu Quoc Resort,"Tổ 4, Ấp 4, Xã Cửa Cạn, Phú Quốc, Kiên Giang",10.30878849,103.8690715,2,31086.0,446.0,2
2820,Bungalow Mai Phuong Bình,"Số 91/1 Trần Hưng Đạo, Phú Quốc, Kiên Giang",10.20579559,103.9638132,2,478.0,446.0,2
2965,Kinh Bắc Bungalow Resort (Kinh Bac Bungalow Resort),"Tổ 7 Ấp Suối Lớn Dương Tơ, Phú Quốc, Kiên Giang",10.08228576,104.0157223,3,42.0,446.0,2
3002,Nhat Quynh 1 Hotel,"50 Nguyen Quang Bich Street, Vinh Bao Ward, Rạch Giá, Rạch Giá (Kiên Giang), Việt Nam",9.998429733,105.0854995,1,30978.0,501.0,2
3007,Anh Dao Hotel,"35 Trần Hưng Đạo, Phú Quốc, Kiên Giang",10.21383344,103.9594173,2,478.0,446.0,2
3074,Nhà nghỉ Cây Cọ (The Palm Tree Guest House),"118/11 Trần Hưng Đạo, Khu Phố 7, Dương Đông, Đảo Phú Quốc, Việt Nam",10.19454322,103.9655757,1,478.0,446.0,2
3095,Khách sạn Victoria Phú Quốc (Victoria Phu Quoc Hotel),"39, Hẻm 63, Trần Hưng Đạo, Phú Quốc, Kiên Giang",10.210352,103.960935,2,478.0,446.0,2
3199,Nhà nghỉ Ngọc Ngân (Ngoc Ngan Guest House),"110 Nguyễn Trung Trực, Phú Quốc, Kiên Giang",10.22191213,103.9622283,1,31070.0,446.0,2
3217,Khách sạn Phúc Hưng 2 (Phuc Hung Hotel 2),"D8-18 Phan Huy Ích Vĩnh Lạc, Thành Phố Rạch Giá, Kiên Giang",9.992889487,105.0859864,2,657.0,501.0,2
3399,Gold Coast Resort,"Tổ 8 Ấp Chuồng Vích, Phú Quốc, Kiên Giang",10.37292664,103.8586253,3,31071.0,446.0,2
3486,Hoa Nhật Lan Bungalow (Hoa Nhat Lan Bungalow),"118 Trần Hưng Đạo, Phú Quốc, Kiên Giang",10.19642022,103.9660488,1,478.0,446.0,2
3542,My Lan Hotel,"Tổ 9 Khu 4, An Thới, Phú Quốc, Kiên Giang",10.01970173,104.0142041,2,31099.0,446.0,2
3665,Pepper Farm Phu Quoc Bungalow,"Tổ 3, Xóm Mới, Bãi Thơm, Phú Quốc, Kiên Giang",10.327868,103.95568,2,733.0,446.0,2
3724,Khách sạn Palace 2 (Palace 2 Hotel),"Số 20, Khu 12, Khu 16ha Hoa Bien, Đường Nguyễn Hùng Sơn, Rạch Giá, Rạch Giá (Kiên Giang), Việt Nam",10.00705528,105.079483,1,30934.0,501.0,2
3746,Nhà nghỉ Phương Dung Phú Quốc ( Phuong Dung Phu Quoc Guest House ),"142 Bạch Đằng, Phú Quốc, Kiên Giang",10.216543,103.961123,1,31058.0,446.0,2
3887,Du Hung 2 Hotel,"83 Trần Hầu, Hà Tiên, Hà Tiên (Kiên Giang), Việt Nam",10.38011975,104.4849694,2,31021.0,230.0,2
3943,Khách sạn Phúc Hưng 1 (Phuc Hung Hotel 1),"D8, 39-40 Lạc Hồng, Thành Phố Rạch Giá, Kiên Giang",9.998774529,105.0947189,2,30940.0,501.0,2
4031,Khách sạn Thiên Phú Nghĩa,"14/1 30 tháng 4, Phú Quốc, Kiên Giang",10.21676,103.971208,2,31068.0,446.0,2
4039,Phuong Hang Guesthouse,"86 Nguyễn Trung Trực, Phú Quốc, Kiên Giang",10.22164555,103.9620271,2,31070.0,446.0,2
4044,Nhà Khách Kitaro (Kitaro Hostel),"Trần Hưng Đạo, Cửa Lấp, Cửa Lấp, Đảo Phú Quốc, Việt Nam, 920000",10.18771118,103.9711601,1,478.0,446.0,2
4076,Resort Đồi Nai Vàng (Doi Nai Vang Resort),"Khu phố 3 Pháo Đài, Thị Xã Hà Tiên, Kiên Giang",10.36548766,104.4452298,2,455.0,230.0,2
4189,Phuong Binh House,"Hẻm 118 Trần Hưng Đạo, Phú Quốc, Kiên Giang",10.19501815,103.9639287,2,478.0,446.0,2
4231,Kim Co Hotel 2,"Lô 7 căn 22, 23, 24 Trần Hầu, Thị Xã Hà Tiên, Kiên Giang",10.37995625,104.48425290000002,1,31021.0,230.0,2
4366,Kim Hong Nhat Hotel Phu Quoc,"130 Bạch Đằng, khu phố 1, Dương Đông, Đảo Phú Quốc, Việt Nam",10.21618629,103.9612877,1,31058.0,446.0,2
4448,Phu Quoc Bien GuestHouse,"118/1 Trần Hưng Đạo, Kp 7, thị trấn Dương Đông, Phú Quốc, Dương Đông, Đảo Phú Quốc, Việt Nam",10.19448247,103.9668792,1,478.0,446.0,2
4451,An Binh Resort,"105 Trần Hưng Đạo, Khu phố 7, Trung Tâm thị trấn Dương Đông, Đảo Phú Quốc, Kiên Giang, Việt Nam, Châu Á, Dương Đông, Đảo Phú Quốc, Việt Nam, 920000",10.20168289,103.9652537,1,478.0,446.0,2
4621,Moon Resort,"82 Trần Hưng Đạo, Dương Đông, Dương Đông, Đảo Phú Quốc, Việt Nam",10.20480685,103.9624858,1,478.0,446.0,2
4660,Nhà nghỉ Davi (Davi Guest House),"Ấp Cửa Lấp, Cửa Lấp, Đảo Phú Quốc, Việt Nam",10.183276,103.968921,1,478.0,446.0,2
4807,Kiet Hong Hotel,"40 Nguyễn Công Trứ, Phường Vĩnh Thanh, Rạch Giá, Rạch Giá (Kiên Giang), Việt Nam, 95000",10.01064272,105.07762379999998,1,30988.0,501.0,2
4859,Hạnh Ngọc Resort Phú Quốc,"155 Trần Hưng Đạo, Phú Quốc, Kiên Giang",10.19148308,103.9669348,3,478.0,446.0,2
5014,Kim Son Phu Quoc Hotel,"84 30 tháng 4, Phú Quốc, Kiên Giang",10.21391758,103.96667,1,31068.0,446.0,2
5868,Huỳnh Gia Bungalow (Huynh Gia Bungalow),"113/9 Trần Hưng Đạo, Phú Quốc, Kiên Giang",10.200728,103.966693,1,478.0,446.0,2
5901,Khách sạn Venus Phú Quốc ( Venus Phu Quoc Hotel),"60A Trần Hưng Đạo, Phú Quốc, Kiên Giang",10.21240404,103.9591867,2,478.0,446.0,2
6119,Bo Resort,"Bãi Biển Ông Lang, Ấp Ông Lang, Phú Quốc, Kiên Giang",10.25862209,103.9358997,3,33806.0,446.0,2
6126,River Hotel,"Lô B3 Trung Tâm Thương Mại Trần Hầu, Thị Xã Hà Tiên, Kiên Giang",10.38041425,104.4861281,3,33722.0,230.0,2
6147,D' Hotel,"111/8 Trần Hưng Đạo, Phú Quốc, Kiên Giang",10.20202,103.967251,2,478.0,446.0,2
6200,The Venue GuestHouse,Ba Phong Bridge,10.18480462,103.96921009999998,0,478.0,446.0,2
6296,Davi Guesthouse,"Tran Hung Dao, Cua Lap",10.18331408,103.9688399,0,478.0,446.0,2
6357,Pepper Farm Phu Quoc,Xom Moi Village,10.32796554,103.9559305,0,35.0,446.0,2
6689,Duc Anh Garden Homestay,"Tran Hung Dao, Cua Lap, Duong To ",10.18480726,103.9688292,2,478.0,446.0,2
6816,Kim Hoa Resort,"88/2 Trần Hưng Đạo, Phú Quốc, Kiên Giang",10.204466,103.962345,3,478.0,446.0,2
6817,Ocean Hill Resort,"2 Ấp Cửa Lấp, Phú Quốc, Kiên Giang",10.18247882,103.9688882,2,31054.0,446.0,2
7083,Kim Minh Resort,"105 Trần Hưng Đạo, Phú Quốc, Kiên Giang",10.2029486,103.9646221,2,478.0,446.0,2
7311,Novotel Phú Quốc Resort (Novotel Phu Quoc Resort),"Tổ 5, Đường Bào, Xã Dương Tơ Unnamed, Phú Quốc, Kiên Giang",10.12823582,103.9781189,5,458.0,446.0,2
7366,Bauhinia Resort & Spa,"Hẻm 91, Tổ 10, Khu phố 7, Trần Hưng Đạo, Phú Quốc, Kiên Giang",10.20626868,103.9660254,3,478.0,446.0,2
7371,Ngoc Ngan Guest House,"110 Nguyễn Trung Trực, Dương Đông, Đảo Phú Quốc, Việt Nam",10.22190189,103.9622726,1,31070.0,446.0,2
7372,Khách sạn Hữu Lễ (Huu Le Hotel),"86 Mac Cuu, KP3, Dương Đông, Đảo Phú Quốc, Việt Nam",10.22260959,103.9569926,2,30995.0,501.0,2
7815,Peppercorn Beach Resort Phú Quốc,"8 Gành Dầu, Phú Quốc, Kiên Giang",10.374887,103.854604,3,472.0,446.0,2
7902,Famiana Beach Resort & Spa,"Ấp Cửa Lấp Trần Hưng Đạo, Phú Quốc, Kiên Giang",10.183299,103.967818,4,478.0,446.0,2
7904,Blue Paradise Resort,"Trần Hưng Đạo Cửa Lấp, Phú Quốc, Kiên Giang",10.18544546,103.9673781,3,31060.0,446.0,2
8399,Khu Nghỉ Dưỡng & Spa Trung Tâm Chez Carole (Chez Carole Center Ressort & Spa),"90 Trần Hưng Đạo, Phú Quốc, Kiên Giang",10.20292556,103.9637542,4,478.0,446.0,2
8402,Phu Quoc Dragon Resort & Spa,"Tổ 4, Ấp Ông Lang, Cửa Dương, Phú Quốc, Kiên Giang",10.26293077,103.9396656,3,102.0,446.0,2
8408,Famiana Green Villa,"Cửa Lấp Trần Hưng Đạo, Phú Quốc, Kiên Giang",10.18373436,103.9691123,4,478.0,446.0,2
8409,Thu Uyên Bungalow (Little Garden Bungalow),"Số  113/5 Trần Hưng Đạo, Phú Quốc, Kiên Giang",10.20135656,103.9653857,3,478.0,446.0,2
8411,Praha Hotel,"Tổ 2, ấp Cửa Lấp Trần Hưng Đạo, Phú Quốc, Kiên Giang",10.185982,103.968679,3,478.0,446.0,2
8418,Khách sạn Phu Quoc Ocean Pearl,"99 đường Trần Hưng Đạo, khu phố 7, Dương Đông, Phú Quốc, Kiên Giang",10.20525265,103.9639984,4,31082.0,446.0,2
8425,Ong Lang Village Resort,"Tổ 3 Ấp Ông Lang, Phú Quốc, Kiên Giang",10.26837902,103.9318871,3,33806.0,446.0,2
8426,MyPlace Siena Garden Resort,"Tổ 1, Suối Mây, Ấp Cửa Lấp, Phú Quốc, Kiên Giang",10.17908909,103.9730403,3,31054.0,446.0,2
8427,Blue Sky Phu Quoc Hotel,"65 30 tháng 4, Phú Quốc, Kiên Giang",10.21499738,103.9619493,2,31068.0,446.0,2
8430,Freebeach Resort ,"Block 7 Trần Hưng Đạo, Phú Quốc, Kiên Giang",10.19130454,103.9646535,3,478.0,446.0,2
8434,Ngọc Việt Bungalow (Ngoc Viet Bungalow),"113/7 Trần Hưng Đạo, Phú Quốc, Kiên Giang",10.20095143,103.9654329,4,478.0,446.0,2
8446,Montana Resort,"Ấp Suối Lớn, Bãi Sao, Phú Quốc, Kiên Giang",10.0828093,104.0154648,3,31061.0,446.0,2
8447,Duke Hostel,"103 Trần Hưng Đạo, Khu Phố 7, Dương Đông, Đảo Phú Quốc, Việt Nam",10.204534,103.964099,1,478.0,446.0,2
8449,Sen Viet Phu Quoc Resort Sport and Spa,"Khu Đô Thị Mới 67,5 ha Thị trấn Dương Đông, Phú Quốc, Kiên Giang",10.24312814,103.9598684,3,8.0,446.0,2
8453,Nhà nghỉ Duy Toàn (Duy Toan Guest House ),"Trần Hưng Đạo, Dương Đông, Đảo Phú Quốc, Việt Nam",10.2058522,103.9655381,1,478.0,446.0,2
8455,Miana Resort Phú Quốc,"73/4 Trần Hưng Đạo, Phú Quốc, Kiên Giang",10.20708761,103.9634916,2,478.0,446.0,2
8457,Sailing Hotel,"90A Trần Hưng Đạo, Phú Quốc, Kiên Giang",10.20451977,103.963761,2,478.0,446.0,2
8460,Bungalow Tài Phát (Bungalow Tai Phat),"Ấp Ông Lang, Ông Lang, Đảo Phú Quốc, Việt Nam, 0773",10.25874901,103.9387817,1,33806.0,446.0,2
8462,La Casa Resort Phú Quốc,"Tổ 4 Ấp Ông Lang, Phú Quốc, Kiên Giang",10.26305065,103.9393197,3,33806.0,446.0,2
8467,Khách sạn Halona Phú Quốc,"66 Trần Phú, Dương Đông, Phú Quốc, Kiên Giang",10.22344347,103.9563645,2,31082.0,446.0,2
8468,Khu Nghỉ Ancarine (Ancarine Beach Resort),"3 Ấp Ông Lang, Phú Quốc, Kiên Giang",10.260079,103.934477,3,33806.0,446.0,2
8472,Highland Bungalow,"111 Trần Hưng Đạo, Phú Quốc, Kiên Giang",10.200951,103.965598,2,478.0,446.0,2
8479,Antinho Hostel,"Số 118/1, đường Trần Hưng Đạo, Dương Đông, Đảo Phú Quốc, Việt Nam",10.19441017,103.9669329,1,478.0,446.0,2
8481,Phu Quoc Villa,"Hẻm Chùa Ông, Đường Trần Hưng Đạo, Dương Tơ, Phú Quốc, Kiên Giang",10.18930569,103.9700255,2,42.0,446.0,2
8482,Khali Resort,"Tổ 8, Khu phố 7 Trần Hưng Đạo, Phú Quốc, Kiên Giang",10.19527182,103.9658359,2,478.0,446.0,2
8483,Gia Thanh Guest House,"91/6 đường Trần Hưng Đạo, Khu phố 7, Dương Đông, Đảo Phú Quốc, Việt Nam, 920000",10.20649433,103.9667358,1,478.0,446.0,2
8487,Khách sạn sinh thái mùa xuân (Eco Spring Villa),"Tổ 1, Ấp Bến Tràm, Dương Đông, Phú Quốc, Kiên Giang",10.20774227,103.9670134,3,31082.0,446.0,2
8490,Khách Sạn SUN & SEA Phú Quốc (Sun and Sea Hotel Phu Quoc),"Đường Trần Hưng Đạo, Cửa Lấp, Phú Quốc, Kiên Giang",10.18673163,103.9686444,2,31060.0,446.0,2
8491,Her Bungalow,"Khóm 4 Ấp Cửa Lấp, Phú Quốc, Kiên Giang",10.18782734,103.9720988,2,31054.0,446.0,2
8497,Mimosa Guest House,"41A Ly Thuong Kiet, khu phố 5, Dương Đông, Phú Quốc, Kiên Giang",10.22446533,103.9665943,2,31082.0,446.0,2
8498,Tina Bungalow,"Tổ 4 Ấp Ông Lang, Phú Quốc, Kiên Giang",10.26294422,103.9405975,3,33806.0,446.0,2
8499,Khách Sạn T and T Phú Quốc (T and T Hotel),"118/6 Trần Hưng Đạo, Phú Quốc, Kiên Giang",10.194502,103.966041,3,478.0,446.0,2
8505,Tre Vang Hotel Phu Quoc,"Đường Chùa Sư Muôn, Ấp Suối Đá, Dương Đông, Đảo Phú Quốc, Việt Nam 0",10.20250495,103.9901555,2,31076.0,446.0,2
8506,Wildland Resort,"Tổ 5, Ấp Cây Sao, Hàm Ninh, Phú Quốc, Kiên Giang",10.22691274,104.0745163,3,680.0,446.0,2
8508,Khanh Duy Bungalow,"167 Trần Hưng Đạo, Phú Quốc, Kiên Giang",10.196653,103.968211,2,478.0,446.0,2
8509,THI LONG PHUNG,"155 Đường 30 Tháng 4 Dương Đông, Phú Quốc, Kiên Giang",10.21365473,103.9659083,3,31082.0,446.0,2
8792,Giraffa Phu Quoc Bungalows,"Cầu Ba Phong, Cửa Lấp Dương Tơ, Phú Quốc, Kiên Giang",10.18880147,103.9712405,3,42.0,446.0,2
8799,Quoc Thang Hotel,"1 Trần Hưng Đạo, Phú Quốc, Kiên Giang",10.18530918,103.9689124,2,478.0,446.0,2
8807,Cao Thuan 5,"72 Trần Hưng Đạo, Phú Quốc, Kiên Giang",10.2079696,103.9622345,0,478.0,446.0,2
8817,THUY HOUSE RESORT," Cửa Dương, Phú Quốc, Kiên Giang",10.25368914,103.9508182,2,102.0,446.0,2
8822,T and T Resort,"Trần Hưng Đạo, Khu Phố 7 Dương Đông, Phú Quốc, Kiên Giang",10.20329458,103.9647442,3,31082.0,446.0,2
8836,Khách Sạn Holiday (Holiday Hotel),"34 30 tháng 4, Phú Quốc, Kiên Giang",10.21475338,103.9619145,2,31068.0,446.0,2
9078,Gia Phuc Motel,"48-50 Dang Thuy Tram, Binh San Ward",10.37995505,104.4861684,0,31036.0,230.0,2
9151,Thuyhouse Resort,"Ông Lăng, Cửa Dương, Dương Đông, Phú Quốc, Kiên Giang",10.253761,103.950482,2,31082.0,446.0,2
9154,"Sen Viet Phu Quoc Resort, Sport & Spa","Khu Đô Thị Mới 67,5 ha Dương Đông, Phú Quốc, Kiên Giang",10.24302858,103.9598353,3,31082.0,446.0,2
9158,Phu Quoc Villas,"Tổ 4 Ấp Cửa Lấp, Phú Quốc, Kiên Giang",10.178794,103.96978,2,31054.0,446.0,2
9159,Phu Quoc Valley Resort,"Tổ 3 Cửa Lấp, Phú Quốc, Kiên Giang",10.18836588,103.979727,2,31060.0,446.0,2
9952,MayFair Valley,"Tổ 3, Ấp Ông Lang, Phú Quốc, Kiên Giang",10.25949868,103.9384398,2,33806.0,446.0,2
9963,Wild Beach Resort Phú Quốc,"Tổ 4, Ấp 4 Xã Cửa Cạn, Phú Quốc, Kiên Giang",10.308401,103.871703,2,31086.0,446.0,2
21682,Bamboo Resort Phu Quoc,"5/121 Trần Hưng Đạo, Phú Quốc, Kiên Giang",10.1996962,103.9693415,3,478.0,446.0,2
21768,The Garden House Phu Quoc Resort,"Tổ 1, Ấp Gành Gió, Cửa Dương, Phú Quốc, Kiên Giang",10.24521516,103.9619869,3,102.0,446.0,2
21819,Phu Quy Resort - Phu Quoc,"Ngã 3 Suối Mây Ấp Cửa Lấp, Phú Quốc, Kiên Giang",10.17854525,103.9723295,3,31054.0,446.0,2
21873,Khách sạn Sunrise Boutique (Sunrise Boutique Hotel),"51 - 53 Trần Hưng Đạo, Phú Quốc, Kiên Giang",10.21269177,103.9593932,3,478.0,446.0,2
21935,Kim Xuân Bungalow 7S,"Khu phố 7 Trần Hưng Đạo, Phú Quốc, Kiên Giang",10.18915783,103.9703124,3,478.0,446.0,2
21957,Khách Sạn L&M OYO 153 (OYO 153 L&M Hotel),"98 30 tháng 4, Phú Quốc, Kiên Giang",10.21363759,103.9661491,2,31068.0,446.0,2
22018,Hong Anh Phu Quoc,19 Nguyen Trai,10.21669885,103.9599457,1,31088.0,446.0,2
22052,Nesta Phu Quoc Hotel,"100C/2 Trần Hưng Đạo, Phú Quốc, Kiên Giang",10.1995906,103.9631724,3,478.0,446.0,2
22070,Bungalow Ngoi Sao Tim,"Group 4, Tran Hung Dao, Cua Lap, Phu Quoc, Kien Giang",10.18856233,103.9718776,0,478.0,446.0,2
22132,Kim Huong Quang Hotel,"14 Nguyen An Ninh, Dương Đông, Phú Quốc, Kiên Giang",10.21724029,103.9603958,1,31082.0,446.0,2
22262,Lotus Private Pool Villas,"Tổ 4 Ganh Gio, Phú Quốc, Kiên Giang",10.25810056,103.954761,3,33666.0,446.0,2
22285,Family Phu Quoc Bungalow,"114 Tran Hung Dao, Duong Dong, Phu Quoc, Kien Giang",10.19649441,103.9672516,0,478.0,446.0,2
22309,Freedomland Phu Quoc Resort,"Ông Lang Cửa Dương, Phú Quốc, Kiên Giang",10.268630300000002,103.9353526,3,102.0,446.0,2
22410,Gold Sand Beach Bungalow,"Tổ 5, ấp 4 Cửa Cạn, Phú Quốc, Kiên Giang",10.30841495,103.8687444,4,35.0,446.0,2
22454,Hung Nguyen Guesthouse,"18 Nguyen Van Cu, Khu 3, An Thoi, Phu Quoc, Kien Giang",10.02028895,104.0168349,0,31077.0,446.0,2
22464,Hotel Blue Dragon,"Tổ 5 Khu phố 10 Cách Mạng Tháng 8 Dương Đông, Phú Quốc, Kiên Giang",10.22982502,103.9639727,2,31082.0,446.0,2
22493,Elwood Premier Resort Phú Quốc,"Tổ 5, ấp Ông Lang Cửa Dương, Phú Quốc, Kiên Giang",10.25631918,103.9435816,4,102.0,446.0,2
22514,88 Hilltop Villa,"Tran Hung Dao, Duong Dong, Phu Quoc, Kien Giang",10.20908969,103.9663459,2,478.0,446.0,2
22580,9 Station Hostel Phú Quốc (9 Station Hostel & Bar),"91/3 Trần Hưng Đạo, Phú Quốc, Kiên Giang",10.206226,103.965362,3,478.0,446.0,2
22619,Be Home 2,"Hẻm 91 Trần Hưng Đạo, Phú Quốc, Kiên Giang",10.20638648,103.9675562,1,478.0,446.0,2
22720,Countryside Garden Resort,"Tổ 3, Ấp Dương Tơ Cửa Lấp, Phú Quốc, Kiên Giang",10.1865838,103.9715948,3,31060.0,446.0,2
22722,Khách sạn Bụi Kiên Giang (Bui Kien Giang Hostel),"236 Nguyễn Hùng Sơn, Thành Phố Rạch Giá, Kiên Giang",10.00793505,105.0799423,3,30965.0,501.0,2
22802,Homestead Garden View Resort,"118/2 Trần Hưng Đạo, Phú Quốc, Kiên Giang",10.19462013,103.9666672,2,478.0,446.0,2
22906,Mai Binh Phuong Bungalow,"Số 2D ngõ 91 Trần Hưng Đạo, Phú Quốc, Kiên Giang",10.20569461,103.9635954,3,478.0,446.0,2
22914,Sea Lavie by D'hotels,"Tran Hung Dao, ấp Cửa Lấp, Cửa Lấp, Đảo Phú Quốc, Việt Nam, 920000",10.18506069,103.9664769,2,478.0,446.0,2
22956,Up Village Phu Quoc,"Tổ 4 Ấp Cửa Lấp, Phú Quốc, Kiên Giang",10.18570352,103.9680433,2,31054.0,446.0,2
22987,Camellia Resort & Spa,"Tổ 3 Ấp Ông Lang, Phú Quốc, Kiên Giang",10.26641498,103.935594,3,33806.0,446.0,2
23029,Sinh Doi Bungalow,"Hẻm 111 Trần Hưng Đạo, Phú Quốc, Kiên Giang",10.206245,103.963008,2,478.0,446.0,2
23134,Phu Quoc Backpackers,"118/2 Tran Hung Dao, Kp7, Duong Dong, Phu Quoc, Kien Giang, Dương Đông, Đảo Phú Quốc, Việt Nam, 920000",10.19484417,103.9640334,1,478.0,446.0,2
23137,Sunlight Bungalow,"100C/1 Trần Hưng Đạo, Phú Quốc, Kiên Giang",10.20043996,103.964932,2,478.0,446.0,2
23140,Nhat Huy Bungalow,"Hamlet Cửa Lấp, Phú Quốc, Kiên Giang",10.18381023,103.9701004,3,31060.0,446.0,2
23167,Bạch Dương Resort (Bach Duong Resort),"13 Lý Thường Kiệt, Dương Đông, Phú Quốc, Kiên Giang",10.2246638,103.964889,2,31082.0,446.0,2
23172,Alanis Lodge Phu Quoc,"96 Nguyễn Trung Trực, Phú Quốc, Kiên Giang",10.22212332,103.9623034,3,31070.0,446.0,2
23189,Vela Phú Quốc Resort (Vela Phu Quoc Resort),"Tổ 3 Ấp Ông Lang, Phú Quốc, Kiên Giang",10.25702094,103.9386774,3,33806.0,446.0,2
23213,Vien Duong Guest House,"Nguyễn Văn Cừ, An Thới, Đảo Phú Quốc, Việt Nam",10.0565335,104.0178736,2,31077.0,446.0,2
23234,Long Beach Garden Phu Quoc,"124 Trần Hưng Đạo, Phú Quốc, Kiên Giang",10.1831461,103.9693324,3,478.0,446.0,2
23248,Rum Bungalow,"139 Trần Hưng Đạo, Phú Quốc, Kiên Giang",10.19574172,103.9684537,4,478.0,446.0,2
23330,Lien My Tam Hotel,"9 Hùng Vương, Khu phố 1 Dương Đông, Phú Quốc, Kiên Giang",10.21830903,103.9713599,2,31082.0,446.0,2
23393,Mai Spa Resort,"Số 88, Tổ 5 Trần Hưng Đạo, Phú Quốc, Kiên Giang",10.20257312,103.9620084,3,478.0,446.0,2
23394,Diadem Resort,"118/2/3 Trần Hưng Đạo, Phú Quốc, Kiên Giang",10.1947546,103.9650421,2,478.0,446.0,2
23461,Mai Phương Resort Phú Quốc,"Tổ 5, ấp 4 Cửa Cạn, Phú Quốc, Kiên Giang",10.30561988,103.8611282,2,35.0,446.0,2
23493,Resort Mỹ Lan (My Lan Guest House),"Tổ 9 Khu phố 4 Bãi Sao, Phú Quốc, Kiên Giang",10.05503167,104.0350771,2,31061.0,446.0,2
23513,Sunny Resort Phú Quốc (Sunny Resort Phu Quoc),"121/1 Trần Hưng Đạo, Lô 7, Dương Đông, Đảo Phú Quốc, Việt Nam",10.20112081,103.9693055,1,478.0,446.0,2
23674,Duc Anh Bungalow,"5 Trần Hưng Đạo, Phú Quốc, Kiên Giang",10.187957,103.96989,2,478.0,446.0,2
23803,NEW SUN HOTEL PHU QUOC 2,"Tổ 8, Trần Hưng Đạo, Phú Quốc, Kiên Giang",10.141763,103.979115,3,478.0,446.0,2
29404,Sen Viet Phu Quoc Resort Sport & Spa,"67 Hecta Khu đô thị mới Ganh Gio, Phú Quốc, Kiên Giang",10.2411742,103.9573483,3,33666.0,446.0,2
29409,Golden Daisy Hotel,"Tổ 7 Trần Hưng Đạo, Phú Quốc, Kiên Giang",10.19895704,103.9686012,2,478.0,446.0,2
29414,Hong Bin Bungalow Phú Quốc,"Tổ 10, Khu phố 7 Trần Hưng Đạo, Phú Quốc, Kiên Giang",10.2056995,103.9635676,3,478.0,446.0,2
29415,Ngoc Chau Hotel Phu Quoc,"66G Trần Hưng Đạo, Phú Quốc, Kiên Giang",10.21229977,103.9592531,3,478.0,446.0,2
29419,Gaia Hotel Phu Quoc,"71 Trần Hưng Đạo, Phú Quốc, Kiên Giang",10.20708664,103.9627491,3,478.0,446.0,2
29445,West Phu Quoc Hotel,"S05, SS08, Khu Tổ Hợp Sonasea Villas and Resort  Đường Bào, Dương Tơ, Phú Quốc, Kiên Giang",10.130062,103.982614,3,42.0,446.0,2
29448,OLIVE ROOM x Seaside Village Phú Quốc,"40-41C Khu Tái Định Cư, Dương Đông, Phú Quốc, Kiên Giang",10.2320942,103.9723486,3,31082.0,446.0,2
29456,Azura Resort,"101/5, KP7 Trần Hưng Đạo, Phú Quốc, Kiên Giang",10.2058215,103.966822,3,478.0,446.0,2
29458,THELAM RESORT,"36 Nguyễn Chí Thanh, Phú Quốc, Kiên Giang",10.21859675,103.9808737,3,31081.0,446.0,2
29466,Bambusa Resort Phú Quốc,"Tổ 5 Ấp Ông Lang, Phú Quốc, Kiên Giang",10.25760669,103.9492063,3,33806.0,446.0,2
29498,Khanh Duy Resort,"167 Tran Hung Dao, Group 4, Dương Đông, Phú Quốc, Kiên Giang",10.190328,103.9685479,3,31082.0,446.0,2
29564,Thuan Hai Hotel,"26 Nguyễn Du Thị trấn Dương Đông, Phú Quốc, Kiên Giang",10.21786826,103.9593249,2,8.0,446.0,2
29566,Aloha Hotel,"S01-SS11 Dương Tơ, Phú Quốc, Kiên Giang",10.13203051,103.9840425,2,42.0,446.0,2
29615,Vinpearl Discovery 1 Phú Quốc,"Bãi Dài, Gành Dầu, Phú Quốc, Kiên Giang",10.338278,103.848629,5,472.0,446.0,2
29663,Sunflower Phu Quoc Hotel,"Lô SS05, Khu tổ hợp du lịch Sonasea & Resorts, Tổ 5, Ấp Đường Bào, Dương Tơ, Phú Quốc, Kiên Giang",10.1305016,103.9823985,3,42.0,446.0,2
29666,vinpearl phu quoc,"11, Ấp Ông Lang, Phú Quốc, Kiên Giang",0.0,0.0,1,33806.0,446.0,2
29684,(★) Vinpearl Phú Quốc 3N2Đ & Bay VNA Khứ Hồi/ 2 khách (HCM - PQ) - SAP,"Vinpearl Phú Quốc, Gành Dầu, Phú Quốc, Kiên Giang",10.338056,103.848618,5,472.0,446.0,2
29686,(★) Vinpearl Phú Quốc 3N2Đ & Bay VNA Khứ Hồi / 2 Khách (HCM - PQ) - XĐS,"Vinpearl Resort & Spa Phú Quốc Gành Dầu, Phú Quốc, Kiên Giang",10.3312525,103.8520438,5,472.0,446.0,2
29694,(★) Vinpearl Phú Quốc 3N2Đ & Bay VNA Khứ Hồi/ 2 khách (HCM - PQ) - DIA,"Vinpearl Phú Quốc, Gành Dầu, Phú Quốc, Kiên Giang",10.3312525,103.8520438,5,472.0,446.0,2
29695,(★) Vinpearl Phú Quốc 3N2Đ & Bay VNA Khứ Hồi/ 2 khách (HN - PQ) - DIA,"Vinpearl Phú Quốc, Gành Dầu, Phú Quốc, Kiên Giang",10.3312525,103.8520438,5,472.0,446.0,2
29696,(★) Vinpearl Phú Quốc 3N2Đ & Bay VNA Khứ Hồi /2 khách (HCM - PQ) - HRR,"Vinpearl Phú Quốc Ấp Gành Dầu, Phú Quốc, Kiên Giang",10.3312525,103.8520438,5,31055.0,446.0,2
29700,(★) Vinpearl Phú Quốc 3N2Đ & Bay VNA Khứ Hồi/2 khách (HCM - PQ) - TQR,"Bãi Dài, Gành Dầu, Phú Quốc, Kiên Giang",10.338056,103.848618,5,472.0,446.0,2
29701,(★) Vinpearl Phú Quốc 3N2Đ & Bay VNA Khứ Hồi (HN - PQ)/2 khách - HRR,"Bãi Dài Gành Dầu, Phú Quốc, Kiên Giang",10.338056,103.848618,3,472.0,446.0,2
29706,(★) Vinpearl Phú Quốc 3N2Đ & Bay VNA Khứ Hồi/2 khách (HCM - PQ) - ĐNA,"Bãi Dài Gành Dầu, Phú Quốc, Kiên Giang",10.338056,103.848618,5,472.0,446.0,2
29707,(★) Vinpearl Phú Quốc 3N2Đ & Bay VNA Khứ Hồi/2 khách (HN - PQ) - ĐNA,"Bãi Dài, Gành Dầu, Phú Quốc, Kiên Giang",10.338056,103.848618,5,472.0,446.0,2
29711,Green Deluxe Hotel Phu Quoc,"SS08, khu tổ hợp du lịch Sonasea Villas & Resort Bãi Trường, Tổ 5, Ấp Đường Bào, Dương Tơ, Phú Quốc, Kiên Giang",10.13051744,103.9824736,3,42.0,446.0,2
40391,Phuc Ngoc Hotel,"1328 Nguyễn Trung Trực, Thành Phố Rạch Giá, Kiên Giang",9.959699916,105.1181058,3,30988.0,501.0,2
40402,Hotel Karaoke Ruby - Ha Tien,"Khu phố 5 Quốc Lộ 80, Thị Xã Hà Tiên, Kiên Giang",10.39143104,104.4795658,2,31029.0,230.0,2
40410,Tom Hill Resort Phú Quốc (Tom Hill Resort Phu Quoc),"121 Trần Hưng Đạo, Phú Quốc, Kiên Giang",10.20190308,103.9716429,3,478.0,446.0,2
40411,The Palmy Phu Quoc Resort and Spa," Trần Hưng Đạo - Cửa Lắp, Phú Quốc, Kiên Giang",10.18519098,103.9672744,4,31095.0,446.0,2
40413,Lahana Phú Quốc Resort (Lahana Resort Phu Quoc),"91/3 Trần Hưng Đạo, Phú Quốc, Kiên Giang",10.20620733,103.9655725,4,478.0,446.0,2
40415,Premier Residences Phu Quoc Emerald Bay Managed by AccorHotels,"Khem Beach An Thới, Phú Quốc, Kiên Giang",10.03506847,104.0278607,5,31099.0,446.0,2
40418,Ancient Village Phu Quoc Resort,"Tổ 4 Ấp Cửa Lấp, Phú Quốc, Kiên Giang",10.18852525,103.9681967,3,31054.0,446.0,2
40419,Amarin Resort,"Trần Hưng Đạo, Dương Tơ Ấp Cửa Lấp, Phú Quốc, Kiên Giang",10.18102646,103.9674072,4,31054.0,446.0,2
40422,Khách sạn An Phú (An Phu Hotel),"185 30 tháng 4, Phú Quốc, Kiên Giang",10.21483707,103.9670614,3,31068.0,446.0,2
40424,Khách sạn Mường Thanh Phú Quốc,"Tổ 3, ấp Đường Bào, Dương Tơ, Phú Quốc, Kiên Giang",10.13268269,103.9798548,4,42.0,446.0,2
40427,Brenta Phu Quoc Hotel,"118 Trần Hưng Đạo, Phú Quốc, Kiên Giang",10.19501805,103.9643313,3,478.0,446.0,2
40428,Khách sạn Wyn Phú Quốc (Wyn Phu Quoc Hotel),"36 Trần Hưng Đạo, Phú Quốc, Kiên Giang",10.21320367,103.9589465,2,478.0,446.0,2
40430,Fusion Resort Phú Quốc (Fusion Resort Phu Quoc - All Spa Inclusive),"Biển Vũng Bầu Cửa Cạn, Phú Quốc, Kiên Giang",10.307692,103.875463,5,35.0,446.0,2
40431,Canary Bungalow,"100C/4 Trần Hưng Đạo, Phú Quốc, Kiên Giang",10.19990749,103.9642747,3,478.0,446.0,2
40433,Be Home 3 Hostel & Bungalow,"undefined Trần Hưng Đạo, Phú Quốc, Kiên Giang",10.1895814,103.9684188,2,478.0,446.0,2
40434,Anja Beach Resort & Spa,"185 Trần Hưng Đạo - Cửa Lắp, Phú Quốc, Kiên Giang",10.18301209,103.9679039,4,31095.0,446.0,2
40435,Ola Phu Quoc Hotel," Cửa Lấp, Phú Quốc, Kiên Giang",10.18406807,103.9680326,3,31060.0,446.0,2
40438,Bon Bon Bungalow,"118/2/1/1 Trần Hưng Đạo, Phú Quốc, Kiên Giang",10.19483589,103.9643468,2,478.0,446.0,2
40439,Green Garden Bungalow Phu Quoc (Green Garden Bungalow Phu quoc),"Tổ 3, khu phố 4 Nguyễn Văn Cừ, Phú Quốc, Kiên Giang",10.05327667,104.0285698,3,31077.0,446.0,2
40440,Wings Bungalow,"Tổ 4, Ấp Cửa Lấp, Phú Quốc, Kiên Giang",10.18997092,103.9738833,3,31054.0,446.0,2
40441,Island Lodge Phu Quoc,"Tổ 2, Ông Lang Cửa Dương, Phú Quốc, Kiên Giang",10.26789302,103.937071,3,102.0,446.0,2
40442,Golden Topaz Phú Quốc Resort (Golden Topaz),"Tổ 5, Ấp Ông Lang, Phú Quốc, Kiên Giang",10.25632191,103.9439779,3,33806.0,446.0,2
40443,Mayfair Beach Resort Phú Quốc (Mayfair Beach Resort Phu Quoc),"Tổ 8 Ấp Chuồng Vích, Phú Quốc, Kiên Giang",10.3735813,103.8576315,3,31071.0,446.0,2
40444,Phú Quốc Pomelo Garden,"Tổ 2 Ấp Ông Lang, Phú Quốc, Kiên Giang",10.26791585,103.9371935,3,33806.0,446.0,2
40445,THE HILL RESORT,"113/15 Trần Hưng Đạo, Phú Quốc, Kiên Giang",10.2029788,103.9682613,3,478.0,446.0,2
40446,S'Bungalow Phu Quoc,"100 Trần Hưng Đạo, Phú Quốc, Kiên Giang",10.20841729,103.9618753,2,478.0,446.0,2
40449,Levan Hotel,"79 Trần Hưng Đạo, Phú Quốc, Kiên Giang",10.20757332,103.9632583,3,478.0,446.0,2
40451,Dugong Phu Quoc Resort,"tổ 12, Ấp Rạch Hàm, Hàm Ninh, Phú Quốc, Kiên Giang",10.20476461,104.057318,3,680.0,446.0,2
40452,Khách Sạn Sunrise Boutique Phú Quốc (Sunrise Boutique Hotel Phu Quoc),"51-53 Trần Hưng Đạo, Phú Quốc, Kiên Giang",10.21279028,103.9592915,3,478.0,446.0,2
40454,InterContinental Phú Quốc Long Beach Resort,"Bãi Trường Dương Tơ, Phú Quốc, Kiên Giang",10.1124435,103.9835119,5,42.0,446.0,2
40457,Khu Nghỉ Dưỡng & Spa Maison du Việt Nam (Maison du Vietnam Resort & Spa),"Tổ 12 Ấp Bến Tràm, Phú Quốc, Kiên Giang",10.24477785,104.0266252,3,31072.0,446.0,2
40462,Coral Bay Hotel & Resort Phu Quoc,"Số 118/12 Tổ 8 Khu phố 7 Trần Hưng Đạo, Phú Quốc, Kiên Giang",10.19329193,103.9651425,3,478.0,446.0,2
40463,JW Marriott Phú Quốc Emerald Bay Resort & Spa (JW Marriott Phu Quoc Emerald Bay Resort & Spa),"Khu du lịch Sinh thái Bãi Khem An Thới, Phú Quốc, Kiên Giang",10.03402525,104.0284039,5,31099.0,446.0,2
40465,Gecko House Phu Quoc,"Tổ 4 Cửa Lấp, Phú Quốc, Kiên Giang",10.18856018,103.9701312,3,31060.0,446.0,2
40470,Le Forest Resort,"Tổ 3, Cửa Lấp, Phú Quốc, Kiên Giang",10.18460285,103.9749365,3,31060.0,446.0,2
40471,Xuân Hiền Resort,"Đường Bãi Sao, Tổ 8, khu phố 4, Thị Trấn An Thới Bãi Sao, Phú Quốc, Kiên Giang",10.0609726,104.0234057,3,31061.0,446.0,2
40475,Giấc Mơ Hè (Summer Dream),"118 Trần Hưng Đạo, Phú Quốc, Kiên Giang",10.19323475,103.9662318,3,478.0,446.0,2
40477,Khu Nghỉ Dưỡng Dreamland Tràng An (Dreamland Trang An Resort),"60 Trần Hưng Đạo, Phú Quốc, Kiên Giang",10.21056518,103.9600422,3,478.0,446.0,2
40478,Vinpearl Discovery 2 Phú Quốc,"Bãi Dài, Gành Dầu, Phú Quốc, Kiên Giang",10.37022493,103.8400698,5,472.0,446.0,2
40480,Nam Nghi Phu Quoc,"Ấp 4 Cửa Cạn, Phú Quốc, Kiên Giang",10.30337802,103.8612398,5,35.0,446.0,2
40481,Vinpearl Discovery 3 Phú Quốc,"Bãi Dài, Gành Dầu, Phú Quốc, Kiên Giang",10.36963393,103.8412285,5,472.0,446.0,2
40486,Ecolodge Phu Quoc Resort,"Tổ 3 Cửa Cạn, Phú Quốc, Kiên Giang",10.29279041,103.912529,3,35.0,446.0,2
40487,THE FISH PHÚ QUỐC (THE FISH PHU QUOC),"113/9 Trần Hưng Đạo, Phú Quốc, Kiên Giang",10.20248647,103.9680641,2,478.0,446.0,2
40490,Nadine Phu Quoc Resort,"Tổ 4, Ấp Cửa Lấp, Phú Quốc, Kiên Giang",10.18985904,103.9700563,4,31054.0,446.0,2
40494,Phú Quốc Paris Beach Resort (Phu Quoc Paris Beach Resort),"cầu Bá Phong, Dương Đông, Phú Quốc, Kiên Giang",10.18525119,103.9663483,3,31082.0,446.0,2
40498,Shero Bungalow,"126 Dương Tơ, Phú Quốc, Kiên Giang",10.18935457,103.9688971,1,42.0,446.0,2
40499,Khách sạn Coral Phú Quốc (Coral Phu Quoc Hotel),"Group 5, Ap Duong Bao Dương Tơ, Phú Quốc, Kiên Giang",10.13358153,103.9827694,3,42.0,446.0,2
40506,Liên Hiệp Thành Mandala Resort (Lien Hiep Thanh Resort),"118/12A Trần Hưng Đạo, Phú Quốc, Kiên Giang",10.206245,103.963008,3,478.0,446.0,2
40507,Best Western Premier Sonasea Phú Quốc (Best Western Premier Sonasea Phu Quoc),"Đường Bào Dương Tơ, Phú Quốc, Kiên Giang",10.131089,103.9799881,5,42.0,446.0,2
40512,Phú Quốc Dumbo (Phu quoc Dumbo),"tổ 7 Ấp Chuồng Vích, Phú Quốc, Kiên Giang",10.37636408,103.8527986,3,31071.0,446.0,2
40520,NewLand Bay Gánh Dầu Phu Quoc (NewLand Bay Ganh Dau Phu Quoc),"Tổ 1, Xóm Mới, Ấp Gành Dầu, Phú Quốc, Kiên Giang",10.37172882,103.8385364,2,31055.0,446.0,2
40527,The Safari Phu Quoc House,"40 Trần Hưng Đạo, Phú Quốc, Kiên Giang",10.21333335,103.9590008,2,478.0,446.0,2
40533,Nipola Hotel,"40 Bạch Đằng, Phú Quốc, Kiên Giang",10.21562958,103.9620514,2,31058.0,446.0,2
40534,Solida Phu Quoc Resort,"Tổ 1 Cửa Dương, Phú Quốc, Kiên Giang",10.24505435,103.9598199,1,102.0,446.0,2
40535,Mojo Boutique Hotel,"Trần Hưng Đạo, ấp Đường Bảo, Cửa Lấp, Phú Quốc, Kiên Giang",10.13055038,103.9830627,2,31060.0,446.0,2
40536,Khách sạn Đảo Ngọc,"76A 30 tháng 4, Phú Quốc, Kiên Giang",10.21345464,103.9653423,3,31068.0,446.0,2
40553,Khách Sạn Huỳnh Trâm - Huynh Tram Hotel,"84 Nguyễn Trường Tộ, An Thới, Phú Quốc, Kiên Giang",10.01705581,104.013212,2,31099.0,446.0,2
40590,Countryside Phu Quoc Resort,"Tổ 3 - Ấp Cửa lấp Dương Tơ, Phú Quốc, Kiên Giang",10.18676081,103.9715999,3,42.0,446.0,2
40591,Vanda Hotel Phu Quoc,"107/1 Trần Hưng Đạo, Phú Quốc, Kiên Giang",10.20233284,103.9650304,3,478.0,446.0,2
40592,OYO 312 Ori Hotel,"Hẻm Chùa Ông, Ấp Cửa Lấp Dương Tơ, Phú Quốc, Kiên Giang",10.18814017,103.9711587,2,42.0,446.0,2
40594,Khách sạn Thanh Vy (Thanh Vy Hotel),"86 Nguyễn Trường Tộ An Thới, Phú Quốc, Kiên Giang",10.04281016,104.013083,2,31099.0,446.0,2
40605,Palma Resort,"107 Trần Hưng Đạo, Phú Quốc, Kiên Giang",10.20303239,103.9658699,3,478.0,446.0,2
40607,Kosmos Phu Quoc Apart Hotel,"shop house SS02 + SS06, Sonasea Villa & Resort Dương Tơ, Phú Quốc, Kiên Giang",10.13012028,103.9820709,3,42.0,446.0,2
40622,Green Ruby Bungalow,"Tổ 4, Ấp Ông Lang, Phú Quốc, Kiên Giang",10.26868306,103.9407706,4,33806.0,446.0,2
40660,Rever Bungalow Phu Quoc,"Ngõ 100C, Tổ 7, Khu phố 7 Trần Hưng Đạo, Phú Quốc, Kiên Giang",10.200898,103.9627803,2,478.0,446.0,2
44205,Mely Wow Phú Quốc Resort (Mely Wow Phu Quoc Resort),"71/7 Trần Hưng Đạo, Phú Quốc, Kiên Giang",10.20873481,103.9641166,3,478.0,446.0,2
44735,Kim Phat Hotel,"11-12 Hoàng Văn Thụ, Pháo Đài, Thị Xã Hà Tiên, Kiên Giang",10.37823288,104.4835711,2,455.0,230.0,2
44737,VinOasis Phú Quốc,"Bãi Dài, Gành Dầu, Phú Quốc, Kiên Giang",10.33000977,103.8557597,5,472.0,446.0,2
44740,Mango Beach Resort,"Tổ 3, Ap Cay Sao, Phú Quốc, Kiên Giang",10.24824354,104.0800239,3,33667.0,446.0,2
45078,Happy Hotel Phú Quốc,"Số 79, Đường Cách Mạng Tháng 8, Khu Phố 10, Thị trấn Dương Đông, Phú Quốc, Kiên Giang",10.23021557,103.9662926,3,8.0,446.0,2
45292,Halona hotel,"66, Trần Phú, Phú Quốc, Kiên Giang",,,2,31073.0,446.0,2
45445,Sunset Beach Resort and Spa,"100C/2, Trần Hưng Đạo, Phú Quốc, Kiên Giang",10.215571699999998,103.9600342,4,478.0,446.0,2
45527,Khách Sạn Happy Hà Tiên,"13 - 14 Đường Hoàng Văn Thụ, Bình San, Thị Xã Hà Tiên, Kiên Giang",10.3780754,104.4835886,2,258.0,230.0,2
45534,Summer Deam Hotel,"118 Trần Hưng Đạo, khu phố 7, Thị trấn Dương Đông, Phú Quốc, Kiên Giang",,,3,8.0,446.0,2
45545,Green Tree Hotel Phú Quốc,"Khu tổ hợp du lịch Sonasea Villas & Resort, Bãi Trường, Dương Tơ, Phú Quốc, Kiên Giang",10.1328853,103.9825427,3,42.0,446.0,2
45652,"[COMBO ƯU ĐÃI] Trải nghiệm 5 sao, Đảo Ngọc khám phá - tại Best Western Premier Sonasea Phu Quoc (3N2Đ)","Đường Bào, Dương Tơ, Phú Quốc, Kiên Giang",10.1310547,103.9898233,5,42.0,446.0,2
45815,Hotel Sun & Sea,"Trần Hưng Đạo, tổ 4, Ấp Cửa Lấp, Dương Tơ, Phú Quốc, Kiên Giang",10.18674177,103.9685688,2,42.0,446.0,2
56,Le Pont Hotel,"62-64 Nui Ngoc treet, Cat Ba Island, Hai Phong City, Viet Nam, Biển Thị Trấn Cát Bà, Quần đảo Cát Bà, Việt Nam, 8431",20.72580765,107.0508268,0,30786.0,,3
116,Đồ Sơn Resort (Do Son Resort),"Khu 3 Đồ Sơn, Quận Đồ Sơn, Hải Phòng",20.67624687,106.8037127,4,30598.0,183.0,3
170,Sea Stars Hotel,"1/3A Lê Hồng Phong, Quận Ngô Quyền, Hải Phòng",20.85913261,106.6981888,4,30710.0,411.0,3
519,Hoang Gia Minh Hotel 1,"18-20 Núi Ngọc, Huyện Đảo Cát Hải, Hải Phòng",20.72490354,107.0502327,2,30786.0,89.0,3
776,Nhà Nghỉ Cát Bà (Catba Hostel),"160 đường Núi Ngọc, Biển Thị Trấn Cát Bà, Quần đảo Cát Bà, Việt Nam",20.72475904,107.0526963,2,30786.0,,3
875,Khách sạn Nam Cường Hải Phòng (Nam Cuong Hai Phong Hotel),"47 Lạch Tray, Quận Ngô Quyền, Hải Phòng",20.84929462,106.6900067,4,265.0,411.0,3
1118,Princess Haiphong Hotel,"3/3B Lê Hồng Phong, Quận Ngô Quyền, Hải Phòng",20.85578275,106.7005813,3,30710.0,411.0,3
1249,Avani Hải Phòng Harbour View (Avani Hai Phong Harbour View),"12 Trần Phú, Quận Ngô Quyền, Hải Phòng",20.86400751,106.6895574,4,30698.0,411.0,3
1279,Level Hotel,"71 Lạch Tray, Quận Ngô Quyền, Hải Phòng",20.84497643,106.6923752,3,265.0,411.0,3
1352,Khách sạn Lạc Long - Hải Phòng (Lac Long Hotel Hai Phong),"83 Bạch Đằng, Quận Hồng Bàng, Hải Phòng",20.86164616,106.6748939,3,30624.0,270.0,3
1387,Hoang Hai Hotel,"109 Cầu Đất, Quận Ngô Quyền, Hải Phòng",20.85417735,106.6836821,2,375.0,411.0,3
1685,Khách sạn Bảo Anh - Hải Phòng (Bao Anh Hotel),"No 20B Minh Khai Street - Hong Bang District - Hai Phong City, Trung tâm thành phố/chợ Sắt, Hải Phòng, Việt Nam, 84031",20.86118786,106.6850513,2,376.0,270.0,3
2790,Thanh Son Hotel,"Số 95 đường Núi Ngọc, Biển Thị Trấn Cát Bà, Quần đảo Cát Bà, Việt Nam",20.72679605,107.05224040000002,0,30786.0,,3
2871,Khách sạn Thành Công 2 (Thanh Cong 2 Hotel),"So 283 duong Nui Ngoc, Biển Thị Trấn Cát Bà, Quần đảo Cát Bà, Việt Nam, 8431",20.72444797,107.0513928,1,30786.0,,3
3227,Cat Ba Harbour Inn Hotel,309 Nui Ngoc,20.7245358,107.0505693,2,30786.0,,3
3325,Khách sạn Tường Vi (Tuong Vi Hotel),"301 Văn Cao, Quận Hải An, Hải Phòng",20.83250212,106.7027485,2,30601.0,237.0,3
3396,Kim Thanh Hotel,67 Dien Bien Phu,20.86151836,106.6839463,2,30639.0,270.0,3
3605,Tan Long Lach Tray Apartment,"203 Lach Tray Street, Trung tâm thành phố/chợ Sắt, Hải Phòng, Việt Nam",20.84120318,106.6939751,4,265.0,411.0,3
3709,Khu Du Lịch và Spa Đảo Cát Bà (Catba Island Resort & Spa),"Cát Cò 1, Đảo Cát Bà, Huyện Cát Hải, Biển Thị Trấn Cát Bà, Quần đảo Cát Bà, Việt Nam",20.71762428,107.052176,4,30781.0,,3
3715,Đông Dương Hotel,"4D Hồ Sen, Quận Lê Chân, Hải Phòng",20.85016139,106.68046470000002,2,30771.0,334.0,3
3853,Thanh Cong 1 Hotel,"Số 39 đường Núi Ngọc, Biển Thị Trấn Cát Bà, Quần đảo Cát Bà, Việt Nam",20.72540627,107.050226,0,30786.0,,3
3881,Green Cat Ba Hostel,"Số 279 đường Núi Ngọc, thị trấn Cát Bà, huyện Cát Hải, Biển Thị Trấn Cát Bà, Quần đảo Cát Bà, Việt Nam 1",20.72453,107.0525,2,30786.0,,3
3890,Thang Long Hotel,"2 Hoàng Văn Thụ, Quận Hồng Bàng, Hải Phòng",20.86404756,106.6814062,4,238.0,270.0,3
3964,Khách sạn Monte Carlo Hải Phòng (Monte Carlo Hotel Hai Phong),"549 Nguyễn Bỉnh Khiêm, Quận Hải An, Hải Phòng",20.84565735,106.7125397,3,30604.0,237.0,3
4007,Căn hộ Camela Luxury Villas (Camela Luxury Villas),"515A Hùng Vương, Quận Hồng Bàng, Hải Phòng",20.87569709,106.64335420000002,4,488.0,270.0,3
4097,Cat Ba Plaza Hotel,"số 229 Phố Cái Bèo Cát Bà Hải Phòng, Biển Thị Trấn Cát Bà, Quần đảo Cát Bà, Việt Nam, 8431",20.73224466,107.058624,2,30783.0,,3
4108,Phương Mai Family Hotel,"Số nhà 193, Tổ dân phố 17 Thị trấn Cát Bà, Huyện Đảo Cát Hải, Hải Phòng",20.72560921,107.0477439,1,7.0,89.0,3
4417,Phuc Dai Loi Hotel - Quang Trung Street,"75 Quang Trung Street, Trung tâm thành phố/chợ Sắt, Hải Phòng, Việt Nam",20.85622444,106.6784255,0,391.0,270.0,3
4552,Somerset Central TD Hai Phong City,"Tòa A, TD Plaza, lô 20A, Lê Hồng Phong, Quận Ngô Quyền, Hải Phòng",20.85734519,106.69936090000002,4,30710.0,411.0,3
4712,Khách Sạn Bank Star 1,"79 Lý Thánh Tông, Vạn Sơn, Đồ Sơn, Bãi Biển Đồ Sơn, Hải Phòng, Việt Nam",20.7120296,106.788217,0,30575.0,183.0,3
4772,An Trang Hotel,"69 núi ngoc- cát bà, Biển Thị Trấn Cát Bà, Quần đảo Cát Bà, Việt Nam 1",20.72599329,107.0508456,2,30786.0,,3
4839,Ciao CatBa Hotel,"Số 265 Đường Núi Ngọc, Biển Thị Trấn Cát Bà, Quần đảo Cát Bà, Việt Nam",20.72432755,107.0530128,2,30786.0,,3
4872,Làng Quốc tế Hướng Dương (Sunflower International Village),"35A Văn Cao, Quận Ngô Quyền, Hải Phòng",20.84076309,106.699791,4,30715.0,411.0,3
5141,Khách sạn Tuấn Linh (Tuan Linh Hotel),"561 Nguyễn Văn Linh, Quận Lê Chân, Hải Phòng",20.83427345,106.6790217,2,30746.0,334.0,3
5155,Sen Hotel Hai Phong,"919 Thiên Lôi, Quận Lê Chân, Hải Phòng",20.83005729,106.6922091,2,30766.0,334.0,3
6327,Tuan Sailing Cruise Cat Ba,Ben Beo Wharf,20.73223212,107.0586509,0,30783.0,,3
6390,Đồ Sơn Villa (Do Son Villa),"Khu 2 Đồ Sơn, Quận Đồ Sơn, Hải Phòng",20.68227669,106.7968136,2,30573.0,183.0,3
6631,Cat Ba Island Resort & Spa,Cat Co 1,20.718402,107.051999,4,30781.0,,3
6656,Camela Hotel and Resort,"515A Hùng Vương, Quận Hồng Bàng, Hải Phòng",20.875751,106.643382,4,488.0,270.0,3
6677,Khách sạn Hữu Nghị Hải Phòng (Huu Nghi Hotel),"60 Điện Biên Phủ, Trung tâm thành phố/chợ Sắt, Hải Phòng, Việt Nam,",20.86164903,106.6838095,4,30639.0,270.0,3
6724,Queen Hotel Cat Ba,"So 1 duong Nui Ngoc, Biển Thị Trấn Cát Bà, Quần đảo Cát Bà, Việt Nam",20.72539373,107.0506659,2,30786.0,,3
7527,Lan Ha Hotel,21 Nui Ngoc,20.7254969,107.0502797,0,30786.0,,3
8195,Hai Phong Tower,"32 Trần Phú, Quận Ngô Quyền, Hải Phòng",20.85767268,106.6856935,4,30698.0,411.0,3
8207,Cozi Hotel,"83 Nguyễn Trãi, Quận Ngô Quyền, Hải Phòng",20.86483395,106.6952044,2,30706.0,411.0,3
8226,Catba Central Hotel,271 Nui Ngoc,20.72454894,107.0518863,0,30786.0,,3
8232,Khách Sạn Tân Long Lakeside (Tan Long Lakeside Hotel),"203 Lach Tray street, Trung tâm thành phố/chợ Sắt, Hải Phòng, Việt Nam",20.847462300000004,106.7166746,4,265.0,411.0,3
8240,Cat Ba House Backpackers,"số 31 đường núi ngọc thị trấn cát bà, Biển Thị Trấn Cát Bà, Quần đảo Cát Bà, Việt Nam",20.72641599,107.05180049999998,1,30786.0,,3
8247,Cat Ba Langur Hostel 2,"# 84 Nui Ngoc Street, Cat Ba Town, Cat Hai",20.726678600000003,107.0520114,0,30786.0,,3
8252,Jewel Cruise,Beo Wharf,20.73211421,107.0589137,4,30783.0,,3
8945,Cat Ba Garden House,95 Nui Ngoc Street,20.72637241,107.0514867,1,30786.0,,3
8946,Cat Ba Climbing Hotel,23 Nui Ngoc Street,20.72520263,107.0498803,1,30786.0,,3
9866,Somerset Central TD Haiphong,"Toà A, TD Plaza, Lot 20A Lê Hồng Phong, Quận Ngô Quyền, Hải Phòng",20.84658993,106.706399,5,30710.0,411.0,3
21669,Minh Quang Hotel,"24 Nui Ngoc, Cat Ba, Cat Hai, Hai Phong",20.72536143,107.050306,0,30786.0,,3
22095,Orchid Hạ Long Cruise (Orchid Ha Long Cruise),"Bến Gót Cát Bi, Quận Hải An, Hải Phòng",20.80547482,106.9024963,5,30587.0,237.0,3
22397,Phu Thanh Sea View Hotel,"230 1 Tháng 4, Huyện Đảo Cát Hải, Hải Phòng",20.724704,107.0491519,2,30787.0,89.0,3
22407,Khách Sạn Hạ Vy (HA VY HOTEL),"315 Núi Ngọc, Huyện Đảo Cát Hải, Hải Phòng",20.725611,107.0515358,2,30786.0,89.0,3
22796,Dorm Cat Co Beach,Cat Co 2a beach,20.71910727,107.0543508,2,30781.0,,3
22905,Cat Ba Guide House,"53, Nui Ngoc Street, Cat Ba Town",20.72569759,107.0510154,0,30786.0,,3
23286,Cat Ba Langur Hostel,52 Nui Ngoc,20.72602256,107.05113529999998,0,30786.0,,3
23409,Khách sạn Cát Bà Palace (Catba Palace Hotel),"Số 180 đường Núi Ngọc, Biển Thị Trấn Cát Bà, Quần đảo Cát Bà, Việt Nam, 8431",20.72465919,107.0520693,1,30786.0,,3
23522,Trang Thanh Luxury Apartment,"Địa chỉ 1 16 Trần Phú, Quận Ngô Quyền Địa chỉ 2 5M Trần Hưng Đạo, Hồng Bàng, Trung tâm thành phố/chợ Sắt, Hải Phòng, Việt Nam",20.863782,106.689645,3,30698.0,411.0,3
23593,Sea Dragon Cat Ba Hotel,"Số 3 Đường Núi Ngọc, Biển Thị Trấn Cát Bà, Quần đảo Cát Bà, Việt Nam",20.725366,107.050717,2,30786.0,,3
23611,Ngoc Lan Anh Hotel Cat Ba,"200 Núi Ngọc , Biển Thị Trấn Cát Bà, Quần đảo Cát Bà, Việt Nam",20.72454,107.051367,2,30786.0,,3
23671,Hong Quang Hotel,"Số 27 đường Núi Ngọc, Biển Thị Trấn Cát Bà, Quần đảo Cát Bà, Việt Nam",20.725295000000003,107.049916,1,30786.0,,3
23734,Nhi Anh Hotel,"170 Núi Ngọc, Cat Ba Island, Hai Phong, Viet Nam, Biển Thị Trấn Cát Bà, Quần đảo Cát Bà, Việt Nam",20.724681,107.052304,0,30786.0,,3
23735,C.Jewel Cruise Cat Ba Island,"Số 164 , đường 1-4 trung tâm thị trấn Cát Bà, Biển Thị Trấn Cát Bà, Quần đảo Cát Bà, Việt Nam 0313",20.73193,107.059342,3,30783.0,,3
29659,Vinpearl Hotel Imperia Hai Phong,"Khu đô thị Vinhomes Imperia, Hà Nội, Quận Hồng Bàng, Hải Phòng",20.86307217,106.6621328,5,30640.0,270.0,3
29660,Quang hotel,"Số 1, Cầu Cái Tắt, Huyện An Dương, Hải Phòng",0.0,0.0,2,30777.0,3.0,3
29726,Sea Pearl Catba Hotel,"219 đường 1/4, Thị trấn Cát Bà, Huyện Đảo Cát Hải, Hải Phòng",20.72472849,107.0494547,3,7.0,89.0,3
41361,Khách sạn Tecco Đồ Sơn & Spa (Tecco do son),"Khu Du Lịch Hòn Dấu, Đồ Sơn, Quận Đồ Sơn, Hải Phòng",20.67998814,106.8052411,4,33006.0,183.0,3
41364,Khách Sạn Manoir Des Arts (Manoir Des Arts Hotel),"64 Điện Biên Phủ, Quận Hồng Bàng, Hải Phòng",20.86169402,106.6833302,4,30639.0,270.0,3
41367,Punt Hotel,"41 Lê Hồng Phong, Quận Ngô Quyền, Hải Phòng",20.85693208,106.7025098,2,30710.0,411.0,3
41369,Viet 4 Seasons Hotel,"275 Lạch Tray Đằng Giang, Quận Ngô Quyền, Hải Phòng",20.833837600000003,106.6973881,4,712.0,411.0,3
41370,Khách sạn Cảnh Hưng (Canh Hung Hotel),"75 Quang Trung, Quận Hồng Bàng, Hải Phòng",20.85598884,106.6780244,2,391.0,270.0,3
41386,Mercure Hải Phòng (Mercure Hai Phong),"12 Lạch Tray, Quận Ngô Quyền, Hải Phòng",20.85161572,106.6870844,5,265.0,411.0,3
41394,Gallant Hotel 154,"154 Ngô Gia Tự, Cát Bi, Quận Hải An, Hải Phòng",20.82968438,106.7043337,2,30587.0,237.0,3
41398,Căn Hộ & Khách Sạn Sunlake (Sunlake Apartment & Hotel),"54 Hoàng Thế Thiện, phường Đông Hải, Quận Hải An, Hải Phòng",20.84744598,106.7114554,3,33551.0,237.0,3
41402,Hanvet Do Son Hotel,"Khu 1 Vạn Hương, Quận Đồ Sơn, Hải Phòng",20.6931466,106.791291,3,66.0,183.0,3
41413,Cozi 9 Hotel,"141 Lê Duẩn, Quận Kiến An, Hải Phòng",20.8222032,106.6455422,2,30630.0,294.0,3
41428,Maxim's Hotel Hai Phong,"3 Lý Tự Trọng, Quận Hồng Bàng, Hải Phòng",20.86198877,106.6864413,2,30647.0,270.0,3
41460,Catba Island Hotel,"182 Núi Ngọc, Huyện Đảo Cát Hải, Hải Phòng",20.725611,107.0515358,2,30786.0,89.0,3
41464,Cat Ba Family Hotel,"245 Núi Ngọc, Huyện Đảo Cát Hải, Hải Phòng",20.72484837,107.0530002,3,30786.0,89.0,3
41471,Khách Sạn Công Khanh (Cong Khanh Hotel),"84 Núi Ngọc, Huyện Đảo Cát Hải, Hải Phòng",20.72673486,107.05215,3,30786.0,89.0,3
41473,Quang Tung Hotel,"Số 250, đường 1/4 Thị trấn Cát Bà, Huyện Đảo Cát Hải, Hải Phòng",20.721771,107.0512853,3,7.0,89.0,3
41475,Cat Ba Orchid Hotel,"2 Núi Ngọc, Huyện Đảo Cát Hải, Hải Phòng",20.72559971,107.0507324,2,30786.0,89.0,3
41486,Ha Noi Cat Ba Hotel,"249 Núi Ngọc, Huyện Đảo Cát Hải, Hải Phòng",20.725611,107.0515358,1,30786.0,89.0,3
41496,Cat Ba Valentine Hotel,"280 Hà Sen, Thị trấn Cát Bà, Huyện Đảo Cát Hải, Hải Phòng",20.73702306,107.0424009,3,7.0,89.0,3
41533,Cat Ba Sailing,"198 Núi Ngọc, Huyện Đảo Cát Hải, Hải Phòng",20.72457211,107.0515217,1,30786.0,89.0,3
41539,Catba Paradise Hotel,"231- 232 Đường 1 tháng 4 Thị trấn Cát Bà, Huyện Đảo Cát Hải, Hải Phòng",20.7145633,107.06575490000002,4,7.0,89.0,3
41540,Khách Sạn Cát Bà Paradise (Cat ba Paradise hotel),"231, 1 Tháng 4, Huyện Đảo Cát Hải, Hải Phòng",20.724704,107.0491519,3,30787.0,89.0,3
41545,Khách sạn Làng Chài (Lang Chai hotel),"256 1 Tháng 4, Huyện Đảo Cát Hải, Hải Phòng",20.724704,107.0491519,2,30787.0,89.0,3
44247,Khách sạn Gallant (Gallant Hotel),"168 Trung Lực, Quận Hải An, Hải Phòng",20.83459303,106.7098098,2,30592.0,237.0,3
44249,Khách Sạn Cát Bà Green (Cat Ba Green Hotel),"225 Núi Ngọc, Huyện Đảo Cát Hải, Hải Phòng",20.725611,107.0515358,2,30786.0,89.0,3
44251,Phoenix Flower Hotel,"224 1 Tháng 4, Huyện Đảo Cát Hải, Hải Phòng",20.724704,107.0491519,2,30787.0,89.0,3
44255,Ocean Cruise," Bến Bèo, Huyện Đảo Cát Hải, Hải Phòng",20.729947,107.057068,4,30794.0,89.0,3
44763,Khách Sạn Lucky Family Cát Bà (Cat Ba Lucky Family Hotel),"25 Lô 2 Núi Ngọc, Huyện Đảo Cát Hải, Hải Phòng",20.725611,107.0515358,1,30786.0,89.0,3
44767,Love Planet Cruise," Bến Bèo, Huyện Đảo Cát Hải, Hải Phòng",20.729947,107.057068,3,30794.0,89.0,3
45000,Hoang Gia Minh Hotel 2,"283 Núi Ngọc, Thị trấn Cát Bà, Huyện Đảo Cát Hải, Hải Phòng",20.7244881,107.0513827,2,7.0,89.0,3
45097,Victory Hotel & Apartment,"Số 119, Nguyễn Đức Cảnh, Quận Lê Chân, Hải Phòng",20.854199,106.6728179,3,30758.0,334.0,3
45156,Skyrest Cat Ong," Đảo Cát Ông, Huyện Đảo Cát Hải, Hải Phòng",20.7126418,107.0207266,1,30784.0,89.0,3
45340,The Star Hotel,"185 Văn Cao, Quận Ngô Quyền, Hải Phòng",20.83706725,106.70130159999998,3,30715.0,411.0,3
45582,Vinpearl Hotel Rivera Hải Phòng,"Đường Manhattan 9 Khu đô thị Vinhomes Imperia Hải Phòng, số 1, Bạch Đằng, Quận Hồng Bàng, Hải Phòng",40.7830603,-73.9712488,5,30624.0,270.0,3
1132,Khách sạn Tre Xanh (Green Bamboo - Tre Xanh Plaza Hotel),"18 Lê Lai, Thành Phố Pleiku, Gia Lai",13.97966766,107.999054,3,22965.0,466.0,4
4368,HAGL Hotel Gia Lai,"01 Phù Đổng, Thành Phố Pleiku, Gia Lai",13.972363,108.014885,4,23005.0,466.0,4
4691,Queen Hotel,"63 Nguyễn Tất Thành, Thành Phố Pleiku, Gia Lai",13.98233607,108.0097836,2,22999.0,466.0,4
7693,Khách Sạn Hoàng Ngọc (HOANG NGOC HOTEL),"69 Tăng Bạt Hổ, Thành Phố Pleiku, Gia Lai",13.98002906,107.993339,2,23007.0,466.0,4
22785,Khách Sạn Khánh Linh (Khanh Linh Hotel),"232 Nguyễn Tất Thành, Thành Phố Pleiku, Gia Lai",13.976624,108.013704,3,22999.0,466.0,4
23506,Khách Sạn & Căn Hộ Đức Long 2 (Duc Long Hotel 2 & Apartment),"117-119 Trần Phú, Thành Phố Pleiku, Gia Lai",13.97726822,107.9952087,3,23038.0,466.0,4
42838,Khách Sạn Le Centre (Le Centre Hotel),"22B Lê Lai, Thành Phố Pleiku, Gia Lai",13.97932357,107.99887,2,22965.0,466.0,4
42842,7S Hotel Thien Duong Xanh & Resort Pleiku,"163 Thống Nhất, Thành Phố Pleiku, Gia Lai",13.96877157,107.99915159999998,2,23010.0,466.0,4
42844,Khách Sạn Ngọc Sê (Ngoc Se Hotel),"133 Nguyễn Tất Thành, Thành Phố Pleiku, Gia Lai",13.976624,108.013704,2,22999.0,466.0,4
42847,Elegant,"64 Nguyễn Tất Thành, Thành Phố Pleiku, Gia Lai",13.98199612,108.0095627,2,22999.0,466.0,4
42852,CONG DOAN GIA LAI HOTEL,"9 Hai Bà Trưng, Thành Phố Pleiku, Gia Lai",13.97957535,107.9948605,2,22961.0,466.0,4
861,Thanh Vân Hotel Quy Nhơn,"311 - 313 Đống Đa, Thành Phố Quy Nhơn, Bình Định",13.78279845,109.2287564,3,537.0,494.0,5
983,Eden Quy Nhon Hotel,"60 Mai Xuân Thưởng, Thành Phố Quy Nhơn, Bình Định",13.775785699999998,109.2261117,2,33471.0,494.0,5
1090,Hoang Yen Canary Hotel,"13-15-17 Nguyễn Huệ, Hải Cảng, Thành Phố Quy Nhơn, Bình Định",13.77192034,109.2405012,3,322.0,494.0,5
1152,Mường Thanh Quy Nhơn Hotel,"Số 2 đường Nguyễn Huệ, Lê Lợi, Thành Phố Quy Nhơn, Bình Định",13.7719458,109.2388373,4,93.0,494.0,5
1309,Hoang Yen Hotel 1,"05, An Dương Vương, Thành Phố Quy Nhơn, Bình Định",13.75462437,109.21736909999998,4,33844.0,494.0,5
1620,My Tien Quy Nhon Hotel,"25 Nguyễn Thị Định, Nguyễn Văn Cừ, Thành Phố Quy Nhơn, Bình Định",13.758553400000002,109.2134328,2,149.0,494.0,5
2795,Hoang Yen Hotel 2,"4 Phan Chu Trinh, Thành Phố Quy Nhơn, Bình Định",13.77761352,109.2383902,3,33864.0,494.0,5
3425,Thien Hai Hotel,"5A Nguyễn Thiếp, Trần Phú, Thành Phố Quy Nhơn, Bình Định",13.76412049,109.2247131,1,307.0,494.0,5
3538,Life's A Beach,"Tổ 2, Khu Vực 1 Bãi Xép, Ghềnh Ráng, Thành Phố Quy Nhơn, Bình Định",13.68707036,109.2313949,1,72.0,494.0,5
3797,Hoang Yen Hotel 3,"376 Xuân Diệu, Hải Cảng, Thành Phố Quy Nhơn, Bình Định",13.76372827,109.2246197,2,33860.0,494.0,5
9421,Khách sạn Hải Âu - Seagull Hotel,"489 An Dương Vương, Thành Phố Quy Nhơn, Bình Định",13.75666385,109.2185855,4,33844.0,494.0,5
29450,Flora Quy Nhon Hotel,"27 Chương Dương, Nguyễn Văn Cừ, Thành Phố Quy Nhơn, Bình Định",13.7526976,109.2143163,3,149.0,494.0,5
29453,Mento Hotel Quy Nhon,"411 Nguyễn Huệ, Trần Phú, Thành Phố Quy Nhơn, Bình Định",13.7641409,109.223274,3,307.0,494.0,5
29467,King Hotel,"68 Hàn Mặc Tử, Ghềnh Ráng, Thành Phố Quy Nhơn, Bình Định",13.7448687,109.21237279999998,2,72.0,494.0,5
29468,Huong Viet Hotel Quy Nhon,"102 Xuân Diệu Hải Cảng, Thành Phố Quy Nhơn, Bình Định",13.77198234,109.2414594,4,322.0,494.0,5
29485,Hoàng Thanh Hotel,"50 Ngô Mây, Thành Phố Quy Nhơn, Bình Định",13.76257038,109.2183304,2,743.0,494.0,5
29501,Crown Retreat Quy Nhon Resort,"Thôn Trung Lương, Quang Trung, Huyện Phù Cát, Bình Định",0.0,0.0,4,30477.0,453.0,5
29511,Sea Harmony Hotel,"Số 24 - 25, Đường Bùi Tư Toàn Nguyễn Văn Cừ, Thành Phố Quy Nhơn, Bình Định",13.7545052,109.2135262,2,149.0,494.0,5
29521,Năm Thu Hotel,"07 Nguyễn Thị Định, Nguyễn Văn Cừ, Thành Phố Quy Nhơn, Bình Định",13.7541592,109.2121173,3,149.0,494.0,5
29531,Quy Nhon Center Hotel,"51, Hoàng Diệu, Lý Thường Kiệt, Thành Phố Quy Nhơn, Bình Định",13.7690802,109.2233383,2,33840.0,494.0,5
29723,Biển Xanh Hotel,"25 Võ Thị Yến, Nguyễn Văn Cừ, Thành Phố Quy Nhơn, Bình Định",13.7573617,109.2157716,2,149.0,494.0,5
29728,Ly Kỳ 2 Hotel,"43 Nguyễn Lạc, Trần Phú, Thành Phố Quy Nhơn, Bình Định",13.7643772,109.2248142,1,307.0,494.0,5
29736,An Phúc Hotel,"36 Hàm Nghi, Ngô Mây, Thành Phố Quy Nhơn, Bình Định",13.7648293,109.2166689,2,743.0,494.0,5
29737,Ruby Luxury Hotel,"100 Nguyễn Trung Trực, Nguyễn Văn Cừ, Thành Phố Quy Nhơn, Bình Định",13.7579978,109.2137116,1,149.0,494.0,5
41555,Khách sạn Osaka Quy Nhơn,"98A Mai Xuân Thưởng, Thành Phố Quy Nhơn, Bình Định",13.77497636,109.2243444,3,33471.0,494.0,5
41557,Casa Marina Resort,"Quốc lộ 1D, Khu vực I, Ghềnh Ráng, Thành Phố Quy Nhơn, Bình Định",13.68691567,109.2302907,4,72.0,494.0,5
41560,Crown Retreat Quy Nhơn,"Thôn Trung Lương xã Cát Tiến, Huyện Phù Cát, Bình Định",13.95517996,109.2412931,4,33841.0,453.0,5
41561,Center Quy Nhon Hotel,"51 Hoàng Diệu, Trần Phú, Thành Phố Quy Nhơn, Bình Định",13.7670741,109.2251697,2,307.0,494.0,5
41566,Resort Aurora Villas Quy Nhơn,"Km 15, Quốc lộ 1D Ghềnh Ráng, Thành Phố Quy Nhơn, Bình Định",13.71242093,109.220109,4,72.0,494.0,5
41573,Anh Vy Hotel,"8 An Dương Vương, Thành Phố Quy Nhơn, Bình Định",13.75564722,109.21733059999998,1,33844.0,494.0,5
41584,Mira Hotel,"Số 11A Ngô Mây Nguyễn Văn Cừ, Thành Phố Quy Nhơn, Bình Định",13.76168768,109.2194122,2,149.0,494.0,5
41586,Khách sạn Thanh Thanh (Thanh Thanh Hotel),"88-90 Nguyễn Văn Cừ, Thành Phố Quy Nhơn, Bình Định",13.74876268,109.2127649,2,149.0,494.0,5
41588,Delight Hotel,"7 Lê Lợi, Thành Phố Quy Nhơn, Bình Định",13.77036472,109.231465,2,93.0,494.0,5
41600,Khách sạn Bích Ngọc (Bich Ngoc Hotel),"74 Tây Sơn Nguyễn Văn Cừ, Thành Phố Quy Nhơn, Bình Định",13.758553400000002,109.2134328,2,149.0,494.0,5
41616,Halo Hostel,"33 Lê Lợi, Thành Phố Quy Nhơn, Bình Định",13.77149772,109.2316168,1,93.0,494.0,5
41642,Khách sạn Anh Quân,"65 Đường Nguyễn Nhạc Nối Dài, Ngô Mây, Thành Phố Quy Nhơn, Bình Định",13.7645546,109.2192394,2,743.0,494.0,5
41650,Thiên Trang Hostel,"12 Xuân Diệu, Hải Cảng, Thành Phố Quy Nhơn, Bình Định",13.771425400000002,109.2399332,3,33860.0,494.0,5
41665,TH Quy Nhơn,"Lô 19, Nguyễn Thị Thập Hải Cảng, Thành Phố Quy Nhơn, Bình Định",13.776555800000002,109.2386684,1,322.0,494.0,5
41679,Khách sạn Hoàng Lan,"58/4 Mai Xuân Thưởng, Thành Phố Quy Nhơn, Bình Định",13.7752618,109.2250307,1,33471.0,494.0,5
41754,Lalaland Hostel,"5 Ngô Mây, Thành Phố Quy Nhơn, Bình Định",13.76150131,109.2199971,1,743.0,494.0,5
45102,Lưu Ngãi Condotel,"92 Võ Thị Yến Nguyễn Văn Cừ, Thành Phố Quy Nhơn, Bình Định",13.753984400000002,109.2137294,3,149.0,494.0,5
45291,Biển Xanh,"25 Võ Thị Yến, phường Nguyễn Văn Cừ, Nguyễn Văn Cừ, Thành Phố Quy Nhơn, Bình Định",,,2,149.0,494.0,5
45553,Khách sạn Thanh Vân,"311 - 313, Đống Đa, Thành Phố Quy Nhơn, Bình Định",13.7824957,109.2294842,3,537.0,494.0,5
45627,Ly Kỳ Hotel,"368 Xuân Diệu, Trần Phú, Thành Phố Quy Nhơn, Bình Định",13.7641843,109.225082,2,307.0,494.0,5
825,Victoria Nui Sam Lodge,"Vĩnh Đông 1, Núi Sam, Thành Phố Châu Đốc, An Giang",10.6711936,105.0854731,3,243.0,104.0,6
939,Khách Sạn Hạ Long Châu Đốc,"Số 1 Núi Sam, Thành Phố Châu Đốc, An Giang",10.68211626,105.08427140000002,3,243.0,104.0,6
2758,Khách sạn Huệ Bình (Hue Binh Chau Doc Hotel)," Tân Lộ Kiều Lương, Thành Phố Châu Đốc, An Giang",10.6831913,105.0846176,2,33507.0,104.0,6
7977,Khách Sạn Hoàng Đức (Hoang Duc Hotel),"Khóm 8 Tân Lộ Kiều Lương, Thành Phố Châu Đốc, An Giang",10.696359,105.10089,3,33507.0,104.0,6
22628,Helen Ngoc Giang Hotel (Khách sạn Helen Ngọc Giang),"173 Nguyễn Thái Học, Thành Phố Long Xuyên, An Giang",10.38453559,105.43268940000002,2,31324.0,344.0,6
45548,Bến Đá Núi Sam hotel,"Đường Tân Lộ Kiều Lương, Thành Phố Châu Đốc, An Giang",10.68360241,105.0840028,3,33507.0,104.0,6
45601,Hoàng Đức Hotel,"Khóm 8, Tân Lộ Kiều Lương, Thành Phố Châu Đốc, An Giang",10.69658734,105.1009128,3,33507.0,104.0,6
82,Huu Nghi Hotel,"74 Lê Lợi, Thành Phố Vinh, Nghệ An",18.68659782,105.67453770000002,3,384.0,667.0,7
630,Khách sạn Mường Thanh Sông Lam (Muong Thanh Song Lam Hotel),"13 Quang Trung, Thành Phố Vinh, Nghệ An",18.66900444,105.6741409,5,216.0,667.0,7
1182,Khách sạn Mường Thanh Grand Cửa Lò (Muong Thanh Grand Cua Lo Hotel),"232 Bình Minh, Thị Xã Cửa Lò, Nghệ An",18.80470572,105.7249157,4,27953.0,142.0,7
1271,Khách sạn Quyết Thành (Quyet Thanh Hotel),"174 Nguyễn Du, Thành Phố Vinh, Nghệ An",18.65727743,105.6965742,2,27906.0,667.0,7
1360,Khách sạn Asean (Asean Vinh Hotel),"114 Trần Phú, Thành Phố Vinh, Nghệ An",18.6655385,105.68262649999998,2,27938.0,667.0,7
1432,Thuong Hai Vinh Hotel,"26 Lê Lợi, Thành Phố Vinh, Nghệ An",18.68148195,105.6740168,3,384.0,667.0,7
4615,Vuong Hoan 1 Hotel,"40 Trần Quang Diệu, Thành Phố Vinh, Nghệ An",18.66778588,105.692664,2,27927.0,667.0,7
4938,Khách sạn Sài Gòn Kim Liên - Vinh - Nghe An (Saigon Kim Lien Hotel - Vinh City),"25 Quang Trung, Thành Phố Vinh, Nghệ An",18.67145767,105.6738102,4,216.0,667.0,7
6251,Binh Minh Dien Chau Hotel," Bãi Biển Diễn Thành, Huyện Diễn Châu, Nghệ An",18.97640038,105.61714170000002,1,27970.0,147.0,7
6642,Khách sạn Mường Thanh Vinh,"Số 1 Phan Bội Châu, Thành Phố Vinh, Nghệ An",18.68813697,105.6657143,3,27923.0,667.0,7
21903,Mường Thanh Grand Hoàng Mai (Muong Thanh Grand Hoang Mai),"Quốc Lộ 1A, Huyện Quỳnh Lưu, Nghệ An",19.25898,105.713512,4,27988.0,498.0,7
22157,Vinh Plaza Hotel,"Số 3 Mai Hắc Đế, Thành Phố Vinh, Nghệ An",18.6876297,105.6751099,4,27889.0,667.0,7
22214,Khách Sạn Xanh Nghệ An (Green Nghe An Hotel),"2 Mai Hắc Đế, Thành Phố Vinh, Nghệ An",18.68759269,105.67508159999998,3,27889.0,667.0,7
22221,Hai Duong Cua Lo Hotel,266 Binh Minh Street,18.79816364,105.7292094,0,27953.0,142.0,7
22286,Summer Cua Lo Hotel,"268 Binh Minh, Cua Lo, Nghe An",18.79805115,105.7293407,0,27953.0,142.0,7
22653,Khách sạn Bảo Nam (Bao Nam Hotel),"150 Mai Thúc Loan Chợ Hải Sản Thị Xã Cửa Lò, Thị Xã Cửa Lò, Nghệ An",18.807125,105.719729,3,27947.0,142.0,7
22812,Khách sạn Hong Kong II (Khach san hong kong),"158 Lê Viết Thuật, Thành Phố Vinh, Nghệ An",18.69480984,105.7051465,3,27890.0,667.0,7
22859,Khách Sạn Mường Thanh Con Cuông (Muong Thanh Con Cuong Hotel),"Khối 2 thị trấn Con Cuông Quốc Lộ 7, Huyện Con Cuông, Nghệ An",19.04895497,104.8874295,4,27976.0,132.0,7
23146,Lam Giang Hotel,"43 Quang Trung, Thành Phố Vinh, Nghệ An",18.67348954,105.6741884,3,216.0,667.0,7
42644,Tecco Sky Hotel & Spa,"Số 72 Lê Lợi, Thành Phố Vinh, Nghệ An",18.68570375,105.674867,3,384.0,667.0,7
42647,Hotel Amazon Vinh,"Số 6 Tân Hùng , Thành Phố Vinh, Nghệ An",18.68399048,105.7041168,1,33843.0,667.0,7
42664,Blue Wave Cua Lo Hotel,"1 Đường Hoàng Văn Tâm Nghi Hương, Thị Xã Cửa Lò, Nghệ An",18.79801941,105.7291794,3,71.0,142.0,7
43019,Sai Gon - Ba Be,"Khu hành chính Vườn Quốc gia Ba Bể, Xã Khang Ninh Hồ Ba Bể, Huyện Ba Bể, Bắc Kạn",22.4178769,105.634704,4,28179.0,13.0,9
43032,Saigon - Ba Be Resort,"Khu hành chính Vườn Quốc gia Ba Bể, Xã Khang Ninh Hồ Ba Bể, Huyện Ba Bể, Bắc Kạn",22.4178769,105.634661,4,28179.0,13.0,9
76,Paradise Suites Hotel,"đường Ngọc Châu , Đảo Tuần Châu Ngọc Châu, Thành Phố Hạ Long, Quảng Ninh",20.91999605,106.9888973,4,31154.0,235.0,10
160,City Bay Hotel,"156B Lê Thánh Tông, Bạch Đằng, Thành Phố Hạ Long, Quảng Ninh",20.951104,107.08281,2,80.0,235.0,10
184,Gray Line Halong Cruise,"Ô21 Cảng Tuần Châu, Đảo Tuần Châu, Thành Phố Hạ Long, Quảng Ninh",20.92747355,106.9860327,4,31180.0,235.0,10
204,Crown Hotel,"Đông Hùng Thắng Bãi Cháy, Thành Phố Hạ Long, Quảng Ninh",20.95478697,107.0223713,3,68.0,235.0,10
348,Halong Bay Hotel (Ha Long Bay Hotel),"152 Hạ Long, Thành Phố Hạ Long, Quảng Ninh",20.95316505,107.0440063,3,31121.0,235.0,10
350,Halong Legacy Cruise,"Cảng Đảo Tuần Châu, Thành Phố Hạ Long, Quảng Ninh",20.92631752,106.9823265,3,31180.0,235.0,10
530,BMC Thang Long Hotel," Hạ Long, Thành Phố Hạ Long, Quảng Ninh",20.94814405,107.02872279999998,3,31121.0,235.0,10
543,Khách sạn Ánh Sao Hạ Long (Starlight Hotel Halong),"1A Anh Đào, Thành Phố Hạ Long, Quảng Ninh",20.95836381,107.0507813,2,31104.0,235.0,10
653,Khách sạn Mường Thanh Hạ Long,"Ô 7, Lô 20, Hùng Thắng, Thành Phố Hạ Long, Quảng Ninh",20.95437107,107.02249240000002,4,269.0,235.0,10
693,Halong Pearl Hotel,"162 đường Hạ Long, Bãi Cháy, Thành Phố Hạ Long, Quảng Ninh",20.95089912,107.0395813,4,68.0,235.0,10
702,Hidden Charm Hotel,"Lô 22D Khu Biệt Thự Tuần Châu, Đảo Tuần Châu, Thành Phố Hạ Long, Quảng Ninh",20.929117,106.985861,3,31180.0,235.0,10
780,Khách Sạn Grand Hạ Long (Grand Ha Long Hotel),"138 Hạ Long, Thành Phố Hạ Long, Quảng Ninh",20.95528097,107.0458621,4,31121.0,235.0,10
799,Royal Villas Halong,"235 Bãi Cháy, Thành Phố Hạ Long, Quảng Ninh",20.95100966,107.0371449,4,68.0,235.0,10
806,Khách Sạn Sài Gòn Hạ Long (Sai Gon Ha Long Hotel),"168 Hạ Long, Thành Phố Hạ Long, Quảng Ninh",20.95149561,107.0396447,4,31121.0,235.0,10
876,Asean Halong Hotel,"Hậu Cần, Bãi Cháy, Thành Phố Hạ Long, Quảng Ninh",20.95294342,107.0404816,4,32820.0,235.0,10
904,Khách sạn Palace Hạ Long (Halong Palace Hotel),"Ô 1 LÔ 20 Khu Du Lịch Đông Hùng Thắng Bãi Cháy, Thành Phố Hạ Long, Quảng Ninh",20.95531611,107.0209858,4,68.0,235.0,10
920,Halong Plaza Hotel,"8 Hạ Long, Thành Phố Hạ Long, Quảng Ninh",20.96061897,107.0626602,4,31121.0,235.0,10
990,Khách sạn Bạch Đằng (Bach Dang Hotel),"Số 02 Hạ Long, Thành Phố Hạ Long, Quảng Ninh",20.96046829,107.0622635,3,31121.0,235.0,10
996,Ha Long DC Hotel,"Số nhà 08, Đường 25/4, Hồng Gai, Thành Phố Hạ Long, Quảng Ninh",20.95175171,107.0788498,4,146.0,235.0,10
1064,La Paz Resort Ha Long,"Đường Ngọc Châu Ngọc Châu, Thành Phố Hạ Long, Quảng Ninh",20.92831374,106.9923037,4,31154.0,235.0,10
1103,Khách Sạn Du Lịch Công Đoàn Hạ Long (Cong Doan Ha Long Hotel),"138 Hạ Long, Thành Phố Hạ Long, Quảng Ninh",20.95515988,107.0460069,3,31121.0,235.0,10
1113,Khách sạn Novotel Hạ Long (Novotel Ha Long Bay Hotel),"160 Hạ Long, Thành Phố Hạ Long, Quảng Ninh",20.95185089,107.0419693,4,31121.0,235.0,10
1256,Starcity Halong Bay Hotel,"phường Bãi Cháy Hạ Long, Thành Phố Hạ Long, Quảng Ninh",20.95437065,107.0442103,4,31121.0,235.0,10
1289,Emeraude Classic Cruises,"Lô số 18, bến số 02 Tuần Châu, Thành Phố Hạ Long, Quảng Ninh",20.92239401,106.9828865,4,53.0,235.0,10
1296,Khách sạn Entity Hạ Long (Entity Halong Hotel),"45 Hậu Cần, Bãi Cháy, Thành Phố Hạ Long, Quảng Ninh",20.95884546,107.0470101,2,32820.0,235.0,10
1308,Khách sạn New Star Hạ Long (New Star Halong Hotel),"Cái Dăm Bãi Cháy, Thành Phố Hạ Long, Quảng Ninh",20.95705538,107.0208656,3,68.0,235.0,10
1325,Hoa Binh Ha Long Hotel,"Đảo Tuần Châu, Đảo Tuần Châu, Hạ Long, Việt Nam",20.93292334,106.9940042,3,31154.0,235.0,10
1511,Ginger Cruise," Tuần Châu, Thành Phố Hạ Long, Quảng Ninh",20.91726264,106.98940690000002,5,53.0,235.0,10
1554,Du Thuyền Paloma Cruise Hạ Long (Halong Paloma Cruise),"Số 6, đường Lê Thánh Tông, bến Vinashin, cảng tài Hòn Gai, Hạ Long, Quảng Ninh, Việt Nam, Cảng Hòn Gai, Hạ Long, Việt Nam, 200000",20.95449696,107.06891029999998,4,31148.0,235.0,10
1592,Garden Bay Premium Cruise,"6A Lê Thánh Tông, Thành Phố Hạ Long, Quảng Ninh",20.95452313,107.0690433,4,31148.0,235.0,10
1659,Khách sạn Hoàng Gia Hạ Long," Hạ Long, Thành Phố Hạ Long, Quảng Ninh",20.960666,107.061315,5,31121.0,235.0,10
1736,Signature Halong Cruise,"6 Lê Thánh Tông, Thành Phố Hạ Long, Quảng Ninh",20.9552198,107.0671749,5,31148.0,235.0,10
1827,Khách sạn Vân Hải Hạ Long,"8 Hạ Long, Thành Phố Hạ Long, Quảng Ninh",20.95983659,107.0610702,3,31121.0,235.0,10
1832,Du thuyền Phoenix Luxury (Phoenix Luxury Cruise),"Nhà ga cảng tàu khách quốc tế Tuần Châu, Đảo Tuần Châu, Thành Phố Hạ Long, Quảng Ninh",21.033878,105.844728,4,31180.0,235.0,10
1868,Jasmine Cruise," Ngọc Châu, Thành Phố Hạ Long, Quảng Ninh",20.91714989,106.9895625,4,31154.0,235.0,10
2226,Majestic Cruise,"Lô 26 Tuần Châu, Thành Phố Hạ Long, Quảng Ninh",20.94639059,107.0325637,4,53.0,235.0,10
2769,Luxury Hotel,"52 Tổ 6 Khu 8 Hải Hà, Thành Phố Hạ Long, Quảng Ninh",20.94178477,107.10747279999998,2,31128.0,235.0,10
2801,Legend Halong Private Cruises - Managed by Bhaya Cruise,"Kiosh 8,9,10 Đảo Tuần Châu, Thành Phố Hạ Long, Quảng Ninh",20.92126083,106.99111940000002,5,31180.0,235.0,10
2805,Signature Royal Halong Cruise,"6 Lê Thánh Tông, Thành Phố Hạ Long, Quảng Ninh",20.95325647,107.0690203,5,31148.0,235.0,10
2887,Bai Tu Long Junks,"6A Đường Lê Thánh Tông, Cảng Hòn Gai, Thành Phố Hạ Long, Quảng Ninh",20.95561028,107.0683136,3,33475.0,235.0,10
3084,Khách Sạn Điện Lực Bãi Cháy,"18 Bãi Cháy, Thành Phố Hạ Long, Quảng Ninh",20.95640867,107.0512135,1,68.0,235.0,10
3197,Halong Party Cruise,"Cảng Tuần Châu, Đảo Tuần Châu, Thành Phố Hạ Long, Quảng Ninh",20.94670789,107.0298976,2,31180.0,235.0,10
3413,Heritage Line - Violet Cruise," Đảo Tuần Châu, Thành Phố Hạ Long, Quảng Ninh",20.9184543,106.9853031,5,31180.0,235.0,10
3421,Ho Tay Hotel,"2 Anh Đào, Bãi Cháy, Hạ Long, Hạ Long, Việt Nam",20.95807075,107.050572,1,31176.0,235.0,10
3437,Khách sạn The Light Hạ Long (The Light Hotel Halong),"108A Vườn Đào, Thành Phố Hạ Long, Quảng Ninh",20.95780741,107.0502785,2,31176.0,235.0,10
3446,Khách sạn Thúy Nga Hạ Long,"11 Cây Tháp, Thành Phố Hạ Long, Quảng Ninh",20.951185,107.0787996,2,31120.0,235.0,10
3500,Aphrodite Cruises Halong,"Văn phòng Aphrodite, Ô số 12, Bến Cảng Ngọc Châu, Đảo Tuần Châu, Thành Phố Hạ Long, Quảng Ninh",20.91851285,106.9897771,4,31180.0,235.0,10
3534,LAzalee Cruise,"Số 18 Đảo Tuần Châu, Thành Phố Hạ Long, Quảng Ninh",20.92237397,106.982865,3,31180.0,235.0,10
3548,Paragon Sancy Cruise," Bến Phà Bãi Cháy, Thành Phố Hạ Long, Quảng Ninh",20.95355,107.069685,3,31215.0,235.0,10
3592,Khách sạn Thiên Thạch Hạ Long,"09 Hạ Long, Thành Phố Hạ Long, Quảng Ninh",20.95645016,107.0546007,2,31121.0,235.0,10
3702,Deluxe Oriental Sails Halong,"Bến tàu Du lịch Quốc tế, số 9 đường Hạ Long, Bãi Cháy, Thành phố Hạ Long, Quảng Ninh, Hạ Long, Hạ Long, Việt Nam, 01119",20.94773483,107.0278244,3,31148.0,235.0,10
3742,Khách sạn Hoàng Lan (Hoang Lan Hotel),"15-17 Vườn Đào, Thành Phố Hạ Long, Quảng Ninh",20.95775223,107.050499,2,31176.0,235.0,10
3765,Hanoi Halong Hotel,"Đường Hạ Long, Phường Bãi Cháy, Halong, Hạ Long, Việt Nam",20.95306365,107.044301,2,31121.0,235.0,10
3864,Ha Long Seasun Cruise,"Bến tàu Vinashin Cảng Hòn Gai, Thành Phố Hạ Long, Quảng Ninh",20.9566305,107.0677006,3,33475.0,235.0,10
3911,Khách sạn Hương Biển Hạ Long (Huong Bien Hotel Halong),"3 Ngọc Châu, Thành Phố Hạ Long, Quảng Ninh",20.92212061,106.991365,2,31154.0,235.0,10
3919,Khách sạn Việt Nhật Hạ Long (Viet Nhat Halong Hotel ),"Số nhà 66, Đường vườn đào, p bãi cháy, tp ha long, tinh quang ninh., Hạ Long, Hạ Long, Việt Nam, 02033840188",20.95887478,107.0495367,1,31176.0,235.0,10
3956,Huong Hai Junks Halong,"Cảng tàu Hòn Gai (Bến tàu Vinashin) Lê Thánh Tông, Thành Phố Hạ Long, Quảng Ninh",20.95436449,107.0683336,3,31148.0,235.0,10
4037,Holiday Hotel Halong,"Số 81 phố Anh Đào, P. Bãi Cháy, Halong, Hạ Long, Việt Nam",20.9578743,107.0507278,1,31176.0,235.0,10
4095,Lemon Cruise,"Bãi Cháy, Hạ Long, Thành Phố Hạ Long, Quảng Ninh",20.94660752,107.0302449,3,31121.0,235.0,10
4145,Ha Long Eden Hotel,"Tổ 1 Khu 2 Bãi Cháy, Thành Phố Hạ Long, Quảng Ninh",20.95619583,107.0488739,3,68.0,235.0,10
4727,Khách sạn Công Viên Hạ Long (Halong Park Hotel),"Tổ 65, khu 5 Bạch Đằng, Thành Phố Hạ Long, Quảng Ninh",20.95178523,107.0909892,2,80.0,235.0,10
4791,Paradis Hotel,"81 25 Tháng 4, Thành Phố Hạ Long, Quảng Ninh",20.95228214,107.08389040000002,2,31113.0,235.0,10
4837,Long Hai Hotel,"Vinh Hồng Mạo Khê, Huyện Đông Triều, Quảng Ninh",21.064383,106.573051,3,33787.0,191.0,10
5021,Majestic - Mong Cai Hotel,"5 Đại Lộ Hòa Bình Trần Phú, Thành Phố Móng Cái, Quảng Ninh",21.53320779,107.9721804,5,950.0,366.0,10
5124,Halong Dragon Cruise,"Cảng Tuần Châu Bãi Cháy, Thành Phố Hạ Long, Quảng Ninh",20.92273693,106.9907252,4,32820.0,235.0,10
5152,MONKEY ISLAND CRUISE,"Cảng Tuần Châu, Đảo Tuần Châu, Thành Phố Hạ Long, Quảng Ninh",20.929117,106.985861,3,31180.0,235.0,10
6009,Sun Legend Cruise,"Cảng Tuần Châu Ngọc Châu, Thành Phố Hạ Long, Quảng Ninh",20.92243128,106.9905281,3,31154.0,235.0,10
6131,Halong Poseidon Sail," Bến Phà Bãi Cháy, Thành Phố Hạ Long, Quảng Ninh",20.94702184,107.0293182,3,31215.0,235.0,10
6318,Du Thuyền Victory Star," Cảng Hòn Gai, Thành Phố Hạ Long, Quảng Ninh",20.94669119,107.0298815,5,33475.0,235.0,10
6484,Du thuyền Halong Aclass Legend," Ngọc Châu, Thành Phố Hạ Long, Quảng Ninh",20.922972,106.99053700000002,3,31154.0,235.0,10
6632,Mường Thanh Luxury Quảng Ninh,"Tổ 1, Khu 2, Bãi Cháy Hạ Long, Thành Phố Hạ Long, Quảng Ninh",20.9564702,107.0492899,5,31121.0,235.0,10
6825,Golden Lotus Cruises,"Bến tàu du lịch Bãi Cháy Hạ Long, Thành Phố Hạ Long, Quảng Ninh",20.94681894,107.0306566,3,31121.0,235.0,10
6843,Golden Cruise,"Bến Phà Tuần Châu Tuần Châu, Thành Phố Hạ Long, Quảng Ninh",20.91818213,106.98985220000002,5,53.0,235.0,10
6947,Luxury White Dolphin Cruises,"6A Lê Thánh Tông, Thành Phố Hạ Long, Quảng Ninh",20.95452814,107.0690245,3,31148.0,235.0,10
6966,Du Thuyền Hương Hải Sealife (Huong Hai Sealife Cruise)," Cảng Hòn Gai, Thành Phố Hạ Long, Quảng Ninh",20.95437284,107.0684624,4,33475.0,235.0,10
6985,Du Thuyền Starlight (Starlight Cruise),"9 Hạ Long, Thành Phố Hạ Long, Quảng Ninh",20.95027222,107.0831071,5,31121.0,235.0,10
6997,Garden Bay Luxury Cruises,"Số 6A Lê Thánh Tông Hồng Gai, Thành Phố Hạ Long, Quảng Ninh",20.9536125,107.06870790000002,4,146.0,235.0,10
7116,Cristina Diamond Cruise,"6A Lê Thánh Tông, Thành Phố Hạ Long, Quảng Ninh",20.95348446,107.0697069,4,31148.0,235.0,10
7312,Thai Hung Hotel,"Số 97 Vườn Đào, Phường Bãi Cháy, Hạ Long, Hạ Long, Việt Nam, 8433",20.95847902,107.0500705,0,31176.0,235.0,10
7836,Vinpearl Resort & Spa Hạ Long," Hạ Long, Thành Phố Hạ Long, Quảng Ninh",20.94121276,107.02554840000002,5,31121.0,235.0,10
8648,La Vela Premium Cruise,"Bến Cảng Tuần Châu, Đảo Tuần Châu, Thành Phố Hạ Long, Quảng Ninh",20.9274495,106.9860384,4,31180.0,235.0,10
8649,La Vela Classic Cruise Managed by Paradise Cruises,"Bến du thuyền đảo Tuần Châu, Đảo Tuần Châu, Thành Phố Hạ Long, Quảng Ninh",20.929117,106.985861,4,31180.0,235.0,10
8658,Oasis Bay Classic Cruises (Oasis Bay Classic Cruise),"7 Đảo Tuần Châu, Thành Phố Hạ Long, Quảng Ninh",20.92402199,106.9817661,4,31180.0,235.0,10
8659,Halong Party Hostel,"23 Vuon Dao, Halong Street, Bai Chay, Halong, Hạ Long, Việt Nam33",20.95737505,107.049982,0,31176.0,235.0,10
8666,Halong Happy Hostel,"25 Anh Đào, Thành Phố Hạ Long, Quảng Ninh",20.95914685,107.0507678,1,31104.0,235.0,10
8669,Van Ly Hotel,"2A Bãi Cháy, Thành Phố Hạ Long, Quảng Ninh",20.95931561,107.0485872,2,32820.0,235.0,10
8670,Khách sạn Hạ Long Four Seasons (Ha Long Four Seasons Hotel ),"68 Vườn Đào, Thành Phố Hạ Long, Quảng Ninh",20.95780741,107.0502785,2,31176.0,235.0,10
8674,Viet Hoa Hotel Halong,"Số 35 đường Vườn Đào, Hạ Long, Hạ Long, Việt Nam",20.95734815,107.0502183,1,31176.0,235.0,10
8676,Khách sạn Bắc Long (Bac Long Hotel),"Số 34 Vườn Đào, Thành Phố Hạ Long, Quảng Ninh",20.958516600000003,107.0505278,2,31176.0,235.0,10
8678,Thuy Dung Hotel,"No.12 , Nha Hat Street, Hon Gai Ward",20.95103951,107.07892350000002,0,31120.0,235.0,10
8686,Halong Bay View Hostel,"Số 80, đường Hạ Long, Hạ Long, Hạ Long, Việt Nam",20.95649149,107.0514377,0,32820.0,235.0,10
8690,Halong Apricot Cruise," Đảo Tuần Châu, Thành Phố Hạ Long, Quảng Ninh",20.92259718,106.9823822,3,31180.0,235.0,10
8691,Hang Hai Hotel,"Vườn Đào, Halong, Hạ Long, Việt Nam",20.95794802,107.0504782,0,31176.0,235.0,10
8698,Golden Cruise 9,"Bến phà Tuần Châu Ngọc Châu, Thành Phố Hạ Long, Quảng Ninh",20.91838497,106.9897037,3,31154.0,235.0,10
8702,Swan Cruises,"6A Lê Thánh Tông, Thành Phố Hạ Long, Quảng Ninh",20.94877529,107.0724106,4,31148.0,235.0,10
8935,Doan Trang Hotel Halong,"108 Hậu Cần, Hạ Long, Hạ Long, Việt Nam",20.9561269,107.0453823,1,32820.0,235.0,10
8938,Halong Backpacker Hostel,"41 Anh Dao, Bai Chay",20.95883251,107.05104409999998,1,31104.0,235.0,10
9055,Huyen Trang Hotel,"B11, Residence South Tuan Chau",20.92069881,106.989423,2,31154.0,235.0,10
9177,Du thuyền Flamingo," Tuần Châu, Thành Phố Hạ Long, Quảng Ninh",20.922348,106.991442,4,53.0,235.0,10
9179,Du Thuyền Ngôi sao Chiến thắng (Victory Star Cruise),"12 Ngọc Châu, Thành Phố Hạ Long, Quảng Ninh",20.92212061,106.991365,4,31154.0,235.0,10
9787,Khách sạn Sài Gòn Hạ Long (Saigon Halong Hotel),"168 Hạ Long, Thành Phố Hạ Long, Quảng Ninh",20.95091949,107.0386362,4,31121.0,235.0,10
9793,Heritage Line - Jasmine Cruise,"Bến cảng Tuần Châu, Đảo Tuần Châu, Thành Phố Hạ Long, Quảng Ninh",20.929117,106.985861,4,31180.0,235.0,10
9901,Galaxy Premium Cruises Halong Bay,"Bến Tàu Du Lịch Tuần Châu, Đảo Tuần Châu, Thành Phố Hạ Long, Quảng Ninh",20.91809352,106.9856035,4,31180.0,235.0,10
9902,Khách Sạn Alex Hải Ninh (Alex Hotel Hai Ninh),"28A Anh Đào, Thành Phố Hạ Long, Quảng Ninh",20.95685648,107.0508671,2,31104.0,235.0,10
9959,Du thuyền Halong Stellar,"Cảng Tuần Châu, Ngọc Châu, Thành Phố Hạ Long, Quảng Ninh",20.922972,106.99053700000002,3,31154.0,235.0,10
10006,Wyndham Legend Halong Hotel,"12 Hạ Long, Thành Phố Hạ Long, Quảng Ninh",20.95968631,107.0601743,5,31121.0,235.0,10
21856,Hai Yen Luxury Hotel,"400 Trần Phú, Thành Phố Cẩm Phả, Quảng Ninh",21.0104236,107.2892028,3,31241.0,95.0,10
21931,Ha Long Ginger Homestay,"33, Group 2, Hung Thang Ward, Ha Long City, Quang Ninh",20.96015282,107.0158847,0,269.0,235.0,10
21945,Seaside Tuan Chau Hotel," Ngọc Châu, Thành Phố Hạ Long, Quảng Ninh",20.91849562,106.9914476,3,31154.0,235.0,10
21952,Khách sạn Paradise Suites & Trend Hạ Long (Paradise Trend)," Đảo Tuần Châu, Thành Phố Hạ Long, Quảng Ninh",20.92146078,106.988908,4,31180.0,235.0,10
22519,Condotel Ha Long,"T1- T2, Greenbay Towers, Hoang Quoc Viet street, Hung Thang ward, Bai Chay",20.9586481,107.0063156,0,31194.0,235.0,10
22778,Nga Trang Hotel,"19 Vuon Dao, Bai Chay, Ha Long, Quang Ninh",20.95820905,107.0505946,1,31176.0,235.0,10
22818,Halong Party Hostel & Hotel,"23 Vườn Đào, Thành Phố Hạ Long, Quảng Ninh",20.95746992,107.050218,2,31176.0,235.0,10
22889,1108 Greenbay Towers Apartment,"Flat 1108, CT1, Greenbay Tower Hoang Quoc Viet, Bai Chay, Ha Long",20.95843644,107.0062874,0,31194.0,235.0,10
22955,Thai Hoang Hotel,"Ly Anh Tong, Cai Rong Port",21.06094285,107.4293488,1,31148.0,,10
23110,Brika Apartment,"Unit 1621, 17 T1 Green Bay Towers Ha Long , Hoang Quoc Viet, Hung Thang, Ha Long City",20.95896495,107.0043662,4,269.0,235.0,10
23209,La Vela Premium Cruise - Managed by Paradise Cruises,"Bến Cảng Tuần Châu, Đảo Tuần Châu, Hạ Long, Việt Nam",20.92261776,106.9905799,5,31154.0,235.0,10
23264,Green Capital Hotel,"38 Hải Phượng, Thành Phố Hạ Long, Quảng Ninh",20.94668399,107.1075851,2,31122.0,235.0,10
23307,Bien Ngoc 10 Cruise,"Cảng Tuần Châu, Ngọc Châu, Thành Phố Hạ Long, Quảng Ninh",20.92237571,106.9905432,3,31154.0,235.0,10
23383,Pelican Halong Cruise,"32 Anh Đào, Thành Phố Hạ Long, Quảng Ninh",20.92213063,106.983287,5,31104.0,235.0,10
23413,Bien Ngoc 06 Cruise,"SN16 - TTTM marine plaza, Hùng thắng, Halong, Hạ Long, Việt Nam",20.94669115,107.0298707,0,31121.0,235.0,10
23433,Bien Ngoc 12 Cruise," Tuần Châu, Thành Phố Hạ Long, Quảng Ninh",20.94665512,107.0298697,3,53.0,235.0,10
23479,Mithrin Hotel Halong,"Bãi cháy Hoàng Quốc Việt, Thành Phố Hạ Long, Quảng Ninh",20.9562397,107.0197449,4,31194.0,235.0,10
23486,Halong Victory Cruise,"Victory Café, Cảng Vina shin, 6A Đường Lê Thánh Tông, Phường Bạch Đằng, Cảng Hòn Gai, Hạ Long, Việt Nam",20.95795303,107.0677328,4,31121.0,235.0,10
23489,Du thuyền Aclass Legend Vịnh Hạ Long (Aclass Legend Cruise Halong Bay),"Cảng Du lịch Quốc tế Tuần Châu Đảo Tuần Châu, Thành Phố Hạ Long, Quảng Ninh",20.9228622,106.9905388,4,31180.0,235.0,10
23560,Khách sạn Việt Anh 123 Hạ Long,"123 Vườn Đào, Thành Phố Hạ Long, Quảng Ninh",20.957893,107.050695,1,31176.0,235.0,10
23638,Bien Ngoc 22 Cruise,"Số 16 Đại Lộ Hạ Long Marine, Phường Hùng Thắng, Bãi Cháy, Quảng Ninh, Halong, Hạ Long, Việt Nam",20.945971,107.03093,3,31121.0,235.0,10
23645,Khách sạn Biển Đông (Bien Dong Hotel Halong),"Tố 12, Khu 4B, Vườn Đào, Thành Phố Hạ Long, Quảng Ninh",20.95594435,107.0459941,2,31176.0,235.0,10
23648,Khách sạn Sen Vàng Hạ Long (Golden Lotus Halong Hotel),"Tổ 1 Khu 2 Hạ Long, Thành Phố Hạ Long, Quảng Ninh",20.95607569,107.0489736,3,31121.0,235.0,10
23696,Phuong Nam Hotel Halong,"Số 152,đường Bãi Cháy,thành phố Hạ Long,tỉnh Quảng Ninh, Halong, Hạ Long, Việt Nam",20.954822,107.043931,1,32820.0,235.0,10
23715,Ruby Ha Long Hotel,"100 Anh Đào, Thành Phố Hạ Long, Quảng Ninh",21.013419,105.806421,2,31104.0,235.0,10
23784,79 Luxury Halong Hotel,"152 - 156 Bãi Cháy, Thành Phố Hạ Long, Quảng Ninh",20.954608,107.044434,3,32820.0,235.0,10
29509,Novotel Ha Long Bay Hotel,"160 Hạ Long, Thành Phố Hạ Long, Quảng Ninh",20.95198312,107.0418415,4,31121.0,235.0,10
29512,Au Lac hotel Ha Long,"Số 9A đường Tiên Ông Bãi Cháy, Thành Phố Hạ Long, Quảng Ninh",20.95456721,107.02253629999998,4,68.0,235.0,10
29533,Sun Bay Tuan Chau Hotel,"A88-A92, Marina Tuần Châu, Thành Phố Hạ Long, Quảng Ninh",20.9162376,106.9921743,3,53.0,235.0,10
29729,Halong Centrica Hotel,"Số 1 phố Trần Quang Diệu, Bãi Cháy, Thành Phố Hạ Long, Quảng Ninh",20.9526028,107.0254987,3,68.0,235.0,10
39724,ZO Brother Halong Hostel,"N10B Cái Dăm, Thành Phố Hạ Long, Quảng Ninh",20.9531858,107.025729,2,31125.0,235.0,10
39725,Royal Lotus Ha Long Resort & Villas,"Bán đảo 2 Hùng Thắng, Thành Phố Hạ Long, Quảng Ninh",20.95478697,107.0046258,5,269.0,235.0,10
39729,Ivy Hotel Ha Long,"Số 18 Ngõ Đào, Bãi Cháy, Thành Phố Hạ Long, Quảng Ninh",20.95700877,107.0492395,2,32820.0,235.0,10
39730,Alisa Cruise,"undefined Đảo Tuần Châu, Thành Phố Hạ Long, Quảng Ninh",20.91743919,106.9877386,5,31180.0,235.0,10
39731,The Confetti hotel,"Số 01 lô D khu dịch vụ cao cấp Bến Đoan Cảng Hòn Gai, Thành Phố Hạ Long, Quảng Ninh",20.9466618,107.0743454,3,33475.0,235.0,10
39733,Khách sạn White Crown (White Crown Hotel),"11 Ngõ 17 Phố Anh Đào Bãi Cháy, Thành Phố Hạ Long, Quảng Ninh",20.95888088,107.0503838,3,68.0,235.0,10
39734,FLC Halong Bay Golf Club & Luxury Resort,"Hẻm 16 Nguyễn Văn Cừ, Thành Phố Hạ Long, Quảng Ninh",20.9538448,107.1123176,5,31163.0,235.0,10
39736,LaPaz Resort (La Paz Resort Ha Long),"Tuần Châu Ngọc Châu, Thành Phố Hạ Long, Quảng Ninh",20.93021772,106.9927597,4,31154.0,235.0,10
39739,Margaret Cruises,"No 20 Cảng Tuần Châu Tuần Châu, Thành Phố Hạ Long, Quảng Ninh",20.91723007,106.9911718,5,53.0,235.0,10
39740,Khách Sạn Ngọc Tuấn (NGOC TUAN HOTEL),"1082, tổ 11 khu 9B Bãi Cháy, Thành Phố Hạ Long, Quảng Ninh",20.96821076,107.0197566,2,68.0,235.0,10
